label,category,locality,postal_code,latitude,longitude,description,ville_proche
Site d'escalade de la Goulette,Lieu de sport et de loisir,Lajoux,39310,46.367279,5.984624,"Un magnifique site d'une vingtaine de voies, peu hautes allant du 3c au 5c, situé entre les villages de Mijoux et Lajoux.",217
Hôtel du Nord by Bestwestern,Logement,Mâcon,71000,46.306569,4.836361,"Situé sur les bords de Saône à Mâcon, entre mâconnais et beaujolais, l’Hôtel du Nord vous propose 19 chambres au centre de la capitale de la Bourgogne du sud.",355
Grande balade de la Chapelle de Montempuy,Lieu de sport et de loisir,Saint-Parize-en-Viry,58300,46.752422,3.355297,"Située aux confins de l’Allier, dans le département de la Nièvre, cette boucle vous mène à la découverte de la jolie campagne nivernaise et de la belle chapelle de Montempuy.",239
Brit Hôtel Mâcon Centre,Restaurant,Mâcon,71000,46.3032,4.826852,L'hôtel est situé à la croisée des grands crus de Bourgogne et du Beaujolais. Il est idéal pour une soirée étape de charme et de détente à mi chemin entre le Nord et le Sud de la France.,355
Panorama 360 Hôtel & Spa,Logement,Mâcon,71000,46.305597,4.828965,"Silhouette reconnaissable entre toutes, l'ancien Hôtel des Postes de Mâcon, superbe bâtisse début XXe en pierre de Flacé et de Saint-Martin, s'est transformé en un hôtel 4 étoiles à la décoration contemporaine et chaleureuse.",355
Sentiers Nordiques,Activité,Lamoura,39310,46.40587,5.98028,Profitez de nombreuses activités neiges et hors neiges avec les chiens de traineaux de Sophie.,203
"Mâcon, Cité de Lamartine",Site culturel,Mâcon,71000,46.30348,4.832142,"Terre natale de Lamartine et Chef lieu du département de la Saône et Loire, Mâcon vous invite à visiter ses musées, ses sites historiques et archéologiques. 
Profitez également de balades agréables le long de la Saône.",355
Communauté de Communes Le Grand Charolais,Activité,Paray-le-Monial,71600,46.454386,4.116652,Établissement public de coopération communale (EPCI) à fiscalité propre.,370
PR 33 : Chemin de la Brigandière,Lieu de sport et de loisir,Dornes,58390,46.709269,3.323168,"Sur ce circuit dans la Nièvre, vous partirez de l'étang des Baillys. Ce parcours est réalisé en grande partie sur les chemins ruraux traversant le territoire : chemins creux humides, vieux chênes, faune et flore sauvage, …",239
Aventure pêche,Activité,Flagy,71250,46.487087,4.638189,"Découvrez avec un guide professionnel et son bateau, la pêche du silure sur la Saône et ses affluents. Depuis presque un demi-siècle, les silures nagent dans la Saône et des captures de silures dépassant 2,50m pour 100 kg sont régulièrement enregistrées.",329
Étangs des Baillys,Lieu de sport et de loisir,Dornes,58390,46.709518,3.323349,"Situé à 2 km du village de Dornes, les étangs des Baillys offre un cadre de pêche où il y règne le calme dans un univers d’eau et de verdure.",239
Eskaleo,Activité,Saint-Claude,39200,46.40031,5.860239,"Eskaléo est spécialiste du canyoning, de la via ferrata et de l'escalade dans le Parc naturel du Haut Jura. Nous organisons des activités à Collonges, Mijoux, Saint Claude, Lac de Vouglans, Moirans en Montagne.",221
Duplex piscine de Montempuy,Logement,Saint-Parize-en-Viry,58300,46.755087,3.350424,"Un duplex pour 3 personnes situé au calme dans le domaine du vieux moulin de Montempuy entouré d'eau.
Possibilité de lit supplémentaire.",239
Auberge de Thoire,Restaurant,Thoirette-Coisia,39240,46.265883,5.516063,"Durant le confinement, l'auberge de Thoire propose des menus différents chaque jour à commander par téléphone et à emporter.",179
Hôtel Ibis Styles Mâcon Centre,Logement,Mâcon,71000,46.30351,4.827122,"Situé en face de la gare ferroviaire de Mâcon, cet hôtel de style décontracté se trouve à 10 minutes à pied de la cathédrale de la ville, datant du XIXe siècle, ainsi que du musée des Ursulines, qui présente des expositions d'art.",355
Le Fort des Rousses,Lieu de sport et de loisir,Les Rousses,39220,46.479385,6.054921,"Nichées dans le Parc Naturel du Haut Jura, à 1 150m d'altitude, découvrez au coeur d'un fort militaire remarquablement aménagé, les caves d'affinage des Comtés Juraflore et l'histoire des plus grands fromages de la Franche-Comté.",218
Via Allier à vélo - Étape 01 - Nevers > Sancoins,Lieu de sport et de loisir,Nevers,58000,46.984968,3.157915,Votre voyage à vélo sur la Via Allier débute à la cité ducale de Nevers. Vous traversez la Loire en suivant son canal latéral jusqu’au pont canal du Guétin qui enjambe la rivière Allier.,251
"Commando Games, Les Rousses",Lieu de sport et de loisir,Les Rousses,39220,46.509638,6.077065,"Au cœur de la station franco-suisse des Rousses, passez une journée en famille au Fort des Rousses Aventure !
Ancien centre d'entrainement militaire, le Fort des Rousses vous attend aujourd'hui pour l'aventure et la découverte !",218
Hôtel Bestwestern d'Europe et d'Angleterre,Logement,Mâcon,71000,46.308431,4.837079,"Situé sur les rives de Saône, au centre de Mâcon, Le Best Western Plus Hôtel d’Europe et d’Angleterre est un rendez-vous avec l’Histoire, dans la capitale de la Bourgogne du Sud.",355
Hôtel Mercure bord de Saône,Restaurant,Mâcon,71000,46.318409,4.842267,"En ville, au calme, situé sur les bords de la Saône, dans un cadre de verdure et de détente, l'hôtel est à quelques minutes seulement des accès autoroutiers.",355
Espace des Mondes Polaires,Activité,Prémanon,39220,46.460834,6.02936,"Vous êtes-vous déjà imaginé au cœur de la banquise, tel un explorateur polaire ? Avec sa piste de rollers quad (patinoire en hiver) et son musée, l’Espace des Mondes Polaires vous invite à plonger dans l’ambiance des pôles !",217
Jura Sick Guide,Activité,Lajoux,39310,46.377966,5.964397,L'équipe de Jura Sick guide vous propose des sorties accompagnées en VTT enduro,203
Féodor,Restaurant,Lajoux,39310,46.375214,5.973053,"Niché au cœur du parc naturel du Haut-Jura, dans les Hautes Combes, Feodor accueille dans le plus haut village du massif jurassien. Ce lieu unique marie une cuisine authentique, entièrement préparée au ""smoker"", et une microbrasserie certifiée BIO.",203
La boîte à montagne,Activité,Les Rousses,39220,46.483878,6.060752,"Vivez des aventures en canyoning ou en via ferrata, découvrez des univers étonnants lors de randonnées en raquettes ou en ski nordique, filez en VTT par monts et par vaux...",218
Lucas Humbert,Activité,Hauts de Bienne,39400,46.523908,6.029974,"Je ne sais plus très bien si j'habite la montagne ou si la montagne m'habite, en tout cas, elle est ma passion et mon principal centre d'intérêt depuis toujours!
Mon métier et ma vocation, ça tombe bien, c'est de la partager avec vous!",201
CHALET BUDDLEIA AU BOIS QUARTOIS,Logement,La Quarte,70120,47.77371,5.69869,,283
CHATEAU D'OUGE,Site culturel,Ouge,70500,47.796627,5.705157,,283
"BARBIER GUY - LA BELLE TRADITION, MENUISIER EBENISTE",Activité,La Rochelle,70120,47.74641,5.73084,,283
"API'VLAD, MIEL à LA QUARTE",Activité,La Quarte,70120,47.77063,5.69636,,283
CROIX-ORATOIRE A OUGE,Site culturel,Ouge,70500,47.808867,5.760193,,283
ANTIQUITE BROCANTE ROULOTTES,Activité,Pierrecourt,70600,47.64226,5.59317,,271
LE RUCHER DU PERE GAILLOT - MIEL D'APICULTEUR,Activité,Chauvirey-le-Vieil,70500,47.78534,5.75739,,283
STATUE DE LA VIERGE MARIE A LA ROCHELLE,Site culturel,La Rochelle,70120,47.7460547,5.73314142,,283
EGLISE SAINT-GILBERT DE LA QUARTE,Site culturel,La Quarte,70120,47.7731196,5.69704238,,283
PARC ET JARDINS DU CHATEAU D'OUGE,Site culturel,Ouge,70500,47.796363,5.705259,,283
ORATOIRE SAINT FERREOL ET SAINT FERJEUX  A LA ROCHELLE,Site culturel,La Rochelle,70120,47.7475809,5.73360642,,283
EGLISE SAINT-REMI DE OUGE,Site culturel,Ouge,70500,47.7966251,5.70415869,,283
CHAPELLE DE SAINT CLAUDE A LA ROCHELLE,Site culturel,La Rochelle,70120,47.7463531,5.73065122,,283
MIELLERIE PHILIPPE LEYOUR,Activité,Montcourt,70500,47.92924,5.9589,,283
CROIX A OUGE (1),Site culturel,Ouge,70500,47.8001743,5.70256336,,283
DOMAINE BOUHELIER,Activité,Chaumont-le-Bois,21400,47.9255351,4.57829471,,12
CROIX SAINT VINARD A OUGE,Site culturel,Ouge,70500,47.793917,5.69894,,283
"CROIX DITE ""CROIX LAMBERT"" A OUGE",Site culturel,Ouge,70500,47.807066,5.71019,,283
LAVOIR RECTANGULAIRE A LA ROCHELLE (1),Site culturel,La Rochelle,70120,47.74697,5.730564,,283
MUSÉE DEPARTEMENTAL ALBERT ET FELICIE DEMARD,Activité,Champlitte,70600,47.6521273,5.6721397,,273
AUBERGE DU VIEUX CHENE - LA QUARTE,Restaurant,La Quarte,70120,47.7712881,5.69680872,,283
CHATEAU DE LA ROCHELLE,Site culturel,La Rochelle,70120,47.7458803,5.73195151,,283
FONTAINE RONDE A LA ROCHELLE (2),Site culturel,La Rochelle,70120,47.7470358,5.7319076,,283
LAVOIR RECTANGULAIRE A LA ROCHELLE (2),Site culturel,La Rochelle,70120,47.7460384,5.733055,,283
CROIX A OUGE (2),Site culturel,Ouge,70500,47.7944243,5.70257129,,283
MUSEE DES OUTILS D'HIER A CHAUVIREY-LE-VIEIL,Activité,Chauvirey-le-Vieil,70500,47.785341,5.757389,,283
Refuge du Baerenkopf,Logement,Lamadeleine-Val-des-Anges,90170,47.773036251608,6.92130893468857,Site calme et agréable au sommet du Baerenkopf.,499
Parc du Château de Drée,Site culturel,Curbigny,71800,46.320872,4.3094849,"Parc de 10 ha, réhabilité depuis peu dans l'esprit du 18ème siècle avec terrasses, statuaire, bassins, parterres de broderies et une vaste roseraie.",328
Camu,Activité,Vézelay,89450,47.4630766,3.7444507,,419
Les Pervenches,Logement,Saint-Martin-de-la-Mer,21210,47.246349,4.19845,,57
Le Sarment,Restaurant,Auxerre,89000,47.79453,3.57483,Restaurant Épicurien par Julien et Thomas.,418
Gîte Wellness Chez Léon,Logement,Allerey-sur-Saône,71350,46.9191,4.99258,Le gîte Wellness Chez Léon est propice à un séjour entre amis ou en famille . Appréciez son espace détente (spa et sauna). Massages sur réservation.,413
Bibliothèque-Médiathèque,Activité,Semur-en-Auxois,21140,47.4902,4.33675,,61
"Loc Val de Loire, Point de location-dépôt",Activité,Nevers,58000,46.981255,3.159873,,251
Appartement - Jean-Pierre Patoz,Logement,Maisons-du-Bois-Lièvremont,25650,46.9666431,6.4199628,,147
Emaux Créations,Activité,Vézelay,89450,47.4651807,3.74495209,Création de bijoux en émail sur cuivre et en argent massif.,419
Église notre-Dame de Martrois,Site culturel,Martrois,21320,47.3106871,4.53781946,,49
Comité Départemental de Vol en Planeur de l'Yonne,Activité,Paron,89100,48.178053,3.250624,Coordination et promotion des activités de vol en planeur du département de l'Yonne.,453
Cinéode - cinécomté,Activité,Poligny,39800,46.83635,5.70289,"Cinéma à Poligny

Tarif mercredi - 5€50

Carte abonnement - 55€00
Valable 12 mois - 10 entrées - non nominative - 4 places maximum par séance.",216
Saint-Odile,Logement,Saint-Honoré-les-Bains,58360,46.90405,3.8421,,249
Au Petit Bonheur,Restaurant,Curtil-Vergy,21220,47.1693541,4.8892465,,44
Le village des écureuils,Activité,Clairvaux-les-Lacs,39130,46.5604607,5.76209952,,189
L’étape des Gourmets,Restaurant,Châtel-Censoir,89660,47.5349186,3.6341531,"Restaurant traditionnel, proche du canal et de la gare. Terrasse ombragée et terrain de pétanque. Bar, cocktails et planches apéro à toute heure.",233
Gîte de Chéry,Logement,Saint-Laurent-en-Brionnais,71800,46.2784429,4.23666466,"Ancien corps de ferme de la fin du 19ème siècle, typique de la région, il a été refait à neuf en 2020.",328
Le Pré Fillet,Restaurant,Septmoncel les Molunes,39310,46.333822,5.89961,Venez déguster une cuisine traditionnelle et régionale au cœur de la montagne. Réservation souhaitable.,221
Le Gris Coquelet,Logement,Bourbon-Lancy,71140,46.630164,3.786909,,313
Ludolac,Activité,Vaivre-et-Montoille,70000,47.6314456,6.12238883,LUDOLAC est un parc aquatique de 2Ha800 situé en pleine verdure. On y trouve des bassins de toutes tailles et de nombreuses animations.,290
Gîte n°G2179,Logement,Le Vaudioux,39300,46.693713,5.92301,,184
Alpage du Levant,Logement,Septmoncel les Molunes,39310,46.3453303,5.9340096,"Un lieu rare pour des moments rares, très éloigné de l'agitation du monde et de l'ordinaire …",221
Les Arobiers,Restaurant,Lamoura,39310,46.3947822,5.96724889,"Restaurant situé au centre du village, ancienne bâtisse jurassienne. Au pied des pistes de ski de fond, raquettes et randonnées pédestres l’été.",203
Bouchard Père et Fils,Activité,Beaune,21200,47.0241359,4.84279659,,7
Eglise Saint-Gilles,Site culturel,Saint-Gilles,71510,46.87887,4.66313,"L'église actuelle fut construite en 1865-1866 (à partir de bâtiments civils) en remplacement d’une chapelle ancienne désaffectée, dédiée à St-Gilles",385
L'Atelier Sauvage,Activité,Landresse,25530,47.252377,6.5046,L'atelier sauvage cultive et transforme une grande diversité de plantes aromatiques et médicinales au cœur d'un verger familial à Landresse.,149
Le Gîte ouest,Logement,Anost,71550,47.0748,4.09079,Un gîte classé ** et labellisé Clévacances pour 4-5 personnes dans une ancienne grange restaurée en plein cœur du Parc Naturel Régional du Morvan.,231
Cabottine,Activité,Semur-en-Auxois,21140,47.4909093,4.33213,,61
Gîte Le Marguerite,Logement,Balanod,39160,46.45478,5.35943,"Gîte chaleureux avec ses poutres apparentes, son poêle à bois, sa terrasse couverte et son jardinet. Idéalement situé pour de jolies randonnées.",219
L'Ouillette,Restaurant,Santenay,21590,46.911074,4.7003789,"Dans un cadre simple et rustique, venez savourer les plats régionaux, mais aussi des mets plus originaux qui varient selon les saisons.",317
Chez Marine et Justine,Logement,Charolles,71120,46.43655,4.27956,"Maison de 230 m² sur 2 étages avec terrain arboré et clos, idéalement située en plein centre ville.
N'hésitez pas à me contacter.",322
PONCET Jacqueline,Logement,Charézier,39130,46.6100118,5.7274295,"Au coeur de la région des lacs, je vous accueille en chambres d'hôtes, celle-ci située à l'étage d'une ancienne ferme rénovée.",189
Maison Doucet,Restaurant,Charolles,71120,46.4334552,4.2751069,"L'hôtel de la Maison Doucet, propose des chambres et des suites très raffinées et toutes équipées.",322
Relais de Chasse,Logement,Voudenay,21230,47.1014058,4.3801588,,4
Gîte,Logement,Saint-Loup-des-Bois,58200,47.4447618,2.99926192,,260
Les Étoiles de Bevy  - Chalet mobile Licorne,Logement,Septmoncel les Molunes,39310,46.370448,5.9112369,Venez découvrir le chalet insolite de luxe Licorne pour deux personnes avec sauna et bain nordique à remous privatifs.,221
Industrie Le Chat - Le Textile Indémaillable,Site culturel,Chauffailles,71170,46.20875,4.3361322,"L’industrie Le Chat, spécialisé dans la lingerie de nuit, perpétue l'activité textile de Chauffailles.",326
Cpie bresse jura,Activité,Sellières,39230,46.8236517,5.56197459,,197
Village de Savigny-lès-Beaune,Site culturel,Savigny-lès-Beaune,21420,47.0632328,4.8174982,,59
Les Cygnes,Restaurant,Villers-le-Lac,25130,47.0645851,6.69263861,"Situé à la frontière suisse, à l'entrée des bassins du Doubs, l'hôtel bénéficie d'une vue imprenable sur la rivière... et ses cygnes.",176
Le gite du Meunier,Logement,Courtelevant,90100,47.516701,7.0833,,503
Gîte de groupe Le grand canady Les jardins de l'etang,Logement,Noidans-le-Ferroux,70130,47.571155,5.95737934,,303
Domaine des Crais,Activité,Leynes,71570,46.2677996,4.7296544,,373
"Randonneurs du Bazois ""Traîne-Savates""",Activité,Châtillon-en-Bazois,58110,47.05235,3.65599,"Randonnées pédestres (5km ou 8km). Ces randonnées sont ouvertes à tous, et il vous sera demandé de prendre une licence à partir de trois randonnées",249
Le Renard Bleu,Restaurant,Châtillon-sur-Seine,21400,47.86741,4.57092,,12
La Bohème  - Cornaline,Logement,Bourbon-Lancy,71140,46.61637,3.77283,"Appartement duplex, 2 à 4 personnes, cuisine équipée, LV, Lave Linge, canapé, TV, fibre, clim, 1 chambre, salle de douche, WC, terrasse et jardin",313
Piscine intercommunale des 7 Chevaux,Activité,Luxeuil-les-Bains,70300,47.8106183,6.35584831,"Club de plongée, cours de natation, club de natation, 3e âge.",285
SCI RBB,Logement,Brion,71190,46.897727,4.233825,"Idéal pour familles à Brion  à 10 mn d'Autun, au calme absolu, notre hameau est composé de 3 maisons indépendants pouvant accueillir 14 personnes.",343
Guilleman,Activité,Marcenay,21330,47.8619742,4.4050944,,12
Thibert Père et Fils,Activité,Fuissé,71960,46.27962,4.74537,,373
Au Nid Douillet,Logement,Salins-les-Bains,39110,46.9368445,5.87709799,"Idéal pour un séjour en couple au coeur de la ville. Profitez d'une jolie vue sur la Grande Saline, l'Hôtel-Dieu et le fort Saint-André.",223
Église de la Nativité,Site culturel,Cussy-le-Châtel,21230,47.1647792,4.58365911,,4
Hôtel Première Classe Chalon-sur-Saône,Logement,Chalon-sur-Saône,71100,46.793275,4.833535,"Situé à 2 min en voiture du péage A6 sortie Chalon-sur-Saône Nord et à 10 min du centre ville de Chalon-sur-Saône, l'hôtel dispose de 71 chambres.",318
Les Carriaux,Logement,Le Fied,39800,46.7717967,5.7255777,,216
A la Frontière du Paradis,Logement,Larochemillay,58370,46.90312,3.931916,,245
LA CHAMADE,Logement,Boussenois,21260,47.629005,5.209676,,60
Fontaine des Bougers,Paysage,Raveau,58400,47.193989,3.095251,"Le nom de Bougers est une déformation de ""Bouviers"" qui dessinait les hommes qui menaient les bœufs.",232
Nonna Trattoria,Restaurant,Les Rousses,39220,46.484497,6.060172,"Spécialités italiennes, le goût de l’Italie dans votre assiette. Cave à vins italiens. Carte à emporter.
Venez découvrir cet endroit convivial.",218
"""16 Rue des Lacs""",Logement,Condes,39240,46.33634,5.62315,"Très joli logement confortable.  Situation idéal pour la pèche , la baignade, promenade , cyclisme...",179
Gilbert Pauline,Activité,Chasnay,58350,47.2462461,3.18380339,,238
Chez Paul et Alice,Logement,Semmadon,70120,47.738895,5.871895,,283
Clément l'Astroguide,Activité,Saint-Prix,71990,46.96236,4.06152,"Soirées d'observations des étoiles par un guide conférencier passionné, à l’œil ou au télescope, découvrez les merveilles du ciel nocturne !",343
Médiathèque de Chassal-Molinges,Site culturel,Saint-Claude,39360,46.3540326,5.7666941,,186
Gîte n°G1196,Logement,Saligney,39350,47.2204193,5.6401711,,211
Abbaye de Luxeuil (Ancienne Abbaye St Colomban),Site culturel,Luxeuil-les-Bains,70300,47.81707,6.380367,,285
Les Marteaux de Mailley,Activité,Mailley-et-Chazelot,70000,47.5396309,6.05383673,L’association a pour but de faire découvrir et revivre les métiers liés à la forge.,290
Circuit privatisé journée - Côte de Beaune et Côte de Nuits,Activité,Dijon,21000,47.322982,5.041742,,19
Aire d'accueil - La Coupe,Logement,Les Fourgs,25300,46.8334471,6.42527177,Stationnement gratuit sur le parking de la Coupe.,110
Gîte La Chapelle,Logement,Noyers,89310,47.695641,3.995663,,442
Aire de stationnement Camping-Car,Logement,Vesoul,70000,47.6410041,6.14249501,Deux emplacements réservés aux camping-cars au carrefour de la Vaugine.,294
Les Roulottes de Campagne,Logement,Toulon-sur-Arroux,71320,46.679926,4.139699,"Venez vivre une aventure insolite en Roulotte de Campagne tout confort, à proximité de Diverti'Parc dans un clos paysager.",408
Eglise Saint-Sébastien de La Chapelle Vaupelteigne,Site culturel,La Chapelle-Vaupelteigne,89800,47.844888,3.7642537,,424
Marais des Brosses,Paysage,Recey-sur-Ource,21290,47.78031,4.861789,,12
La Sarrazine - Appartement 2,Logement,Sarrageois,25240,46.7261968,6.2181103,Appartement situé au rez-de-chaussée.,140
La Grande Maison dans la Prairie,Logement,Chaumot,89500,48.08317,3.18427,"Cette vaste maison d'hôtes de 400 m2, ancien corps de ferme rénové avec goût, à seulement 1h30 et 2h de Dijon, vous accueillera pour un agréable.",436
Chambre d'hotes la saônoise,Logement,Conflandey,70170,47.7282447,6.04736849,,293
Les Couloirs du Temps - La Clé du Bastion,Activité,Belfort,90000,47.63964,6.86498,"La mission incontournable pour les 6-10 ans, entre énigmes, jeux d'adresses et aventures.
Option d'une formule anniversaire disponible !",489
Appartement - Yann Patoz,Logement,Montbenoît,25650,47.0079138,6.45649551,Gîte situé dans une ancienne ferme comtoise dans un hameau calme et tranquille.,147
Chambres d'hôtes du Randonneur,Logement,Anglure-sous-Dun,71170,46.232064,4.361285,"Suite familiale, 3  chambres 6 personnes et suite de 45m2 pour 2 personnes. Petit-déjeuner bio compris dans la nuitée.",326
Le Relais des Sapins,Restaurant,Anglure-sous-Dun,71170,46.2318317,4.36038698,Dans un cadre verdoyant avec vue panoramique sur le bocage Brionnais et le viaduc de Mussy-sous-Dun.,326
Truffière et parcours pédagogique du Pays Seine-et-Tilles,Site culturel,Is-sur-Tille,21120,47.522464,5.100266,,26
Musée Histoire et Culture des Sourds,Activité,Louhans,71500,46.628955,5.225489,"Un musée dédié à l'histoire et à la culture des sourds : langue des signes, vie sociale, enseignement, art et le parcours de Ferdinand Berthier.",353
La Ferme Aquacole de Crisenon,Activité,Prégilbert,89460,47.640818,3.6581184,"Ici, vous pouvez vous promener, pêcher (matériel fourni), vous rafraîchir à l'ombre  du platane bicentenaire et passer tout simplement un agréable mom",434
Hotel Campanile Beaune,Restaurant,Beaune,21200,46.987618,4.835211,L'hôtel restaurant Campanile Beaune est une étape idéale sur la route des vacances et vous permettra de découvrir Beaune et ses environs.,9
Les Greniers du Meix Lagor,Logement,Montlebon,25500,47.0102209,6.62718009,"À 1100 m d'altitude, au milieu d'une nature aussi sauvage qu'accessible, dans cette ancienne grange les chambres sont d'authentiques greniers.",137
"Le Moulin du Coq, côté Village",Logement,Argilly,21700,47.06694,5.00999,,44
Pêche au Lac de la faïencerie,Activité,Rioz,70190,47.425622,6.0731134,,296
Les Hirondelles,Logement,Laroche-Saint-Cydroine,89400,47.9637056,3.491414,"Gîte très calme donnant sur la rivière. Idéal pour la pêche, les balades à pied ou en vélo (canal de Bourgogne à 800 m). Local à vélo à disposition.",443
Auberge Croix Messire Jean,Restaurant,Uchon,71190,46.8092586,4.2578584,,343
Aire de service pour camping-car de Moulins-Engilbert,Logement,Moulins-Engilbert,58290,46.9851423,3.80920237,"Pour les utilisateurs de camping-cars, possibilité de profiter de l'aire de services dans le bourg de Moulins-Engilbert, dans le Parc naturel Régional",249
Climats des Échaliers,Logement,Beaune,21200,47.0157997,4.8475785,,7
Appartement F3 meublé pour cure thermale,Logement,Luxeuil-les-Bains,70300,47.8128684,6.3816943,"Loue appartement type F3 au 2ème étage au centre de Luxeuil les bains, proche de tous commerces.
15 minutes à pied des thermes de Luxeuil.",285
La maison d'à côté,Logement,Saint-Amand-en-Puisaye,58310,47.5297839,3.0742562,,255
Hôtel Aux Vendanges de Bourgogne,Restaurant,Paray-le-Monial,71600,46.4465568,4.1170399,"Idéalement situé, proche centre historique, voie verte, canal et gare, notre hôtel, labellisé ""logis"" vous apportera tout le confort pour votre séjour",370
Naudin-Ferrand Henri,Activité,Magny-lès-Villers,21700,47.0979218,4.8745559,,28
Auberge des 4 Générations,Restaurant,La Chaumusse,39150,46.6025326,5.96140151,"L'auberge 4 générations vous propose des plats élaborés à partir de produits frais. Ouvert du lundi au vendredi midi, vendredi soir et dimanche soir.",222
Auberge Bressane,Restaurant,Serley,71310,46.8205771,5.2396816,,361
Au Lotus blanc - Massages  Ayurvédique,Activité,Longchaumois,39400,46.4766796,5.95646892,"Massages et soins  à l'huile de sésame bio selon la tradition Ayurvédique.Enfants, adultes. Certifications ""CLK Formation"" à Lyon, reconnu par la FFMB",203
A la Combe de Nuits,Logement,Corgoloin,21700,47.08493,4.91198,,28
L'Absinthe - Restaurant du Saut du Doubs,Restaurant,Villers-le-Lac,25130,47.085253,6.70946044,"Sur le site naturel du Saut du Doubs, dégustez une absinthe à la fontaine avant d'apprécier votre repas aux saveurs comtoises.",176
Gîte du Presbytère,Logement,Voulaines-les-Templiers,21290,47.8184976,4.77825346,Ancien presbytère maison de caractère idéale pour des groupes,12
Dégustation - Formule Premium,Activité,Tournus,71700,46.5846248,4.90279079,Visite explicative de notre espace pédagogique et dégustation commentée de 6 vins (dont 4 vins classés en 1er cru) + 1 spirit + charcuteries/fromages.,409
Meublés Les Fleurs,Logement,Luxeuil-les-Bains,70300,47.8195029,6.37958414,"3 Studios (Orchidées, Clématites, Glycines et Jonquilles), deux au RDC et deux au 1er étage dans cour intérieure, non visibles de la rue, au calme.",285
L'Affineur Comtois,Restaurant,Besançon,25000,47.2429691,6.02140399,"Dans un cadre typique des chalets du Haut-Doubs, laissez-vous transporter par les saveurs des spécialités de notre région.",81
Chaletang,Logement,Sermamagny,90300,47.6784493,6.84040546,,514
A la bulle étoile,Logement,Loulans-Verchamp,70230,47.4464484,6.2049508,"Ressourcez-vous dans l'une de nos deux bulles, pour une expérience atypique, nichée en pleine nature, au cœur de la Haute-Saône, à Loulans-Verchamp.",158
Le Majestic Love Room N°2,Logement,Mâcon,71000,46.29959,4.82959,"L'Appartement Majestic  'Love Room' est unique.
Superficie de 32 m². Cuisine  et des services de confort. Place parking. WIFI par fibre optique.",355
Le TilleRoy,Logement,Painblanc,21360,47.1487213,4.61235376,,4
L'Épicerie,Activité,Gray,70100,47.4450065,5.59179141,,280
Les Chambres de Rougemont,Logement,Rougemont,21500,47.668857,4.24312734,"Situé à Rougemont, à 26 km de Semur-en-Auxois, l'établissement Les Chambres de Rougemont propose un jardin et une connexion Wi-Fi gratuite.",40
La Forge d'Eloi,Activité,Blanot,71250,46.472726,4.736567,,310
LocaZen,Logement,Damprichard,25450,47.2335805,6.868512,Nouveau gîte rénové récemment. Situé dans un petit village des montagnes du Jura. Proche des sentiers de randonnées et des commerces.,98
Le Gîte à Riton,Logement,Lesme,71140,46.653046,3.717509,Maison individuelle pour 8 personnes.,313
Château de la Dame Blanche,Restaurant,Geneuille,25870,47.3308948,5.9698151,"Installé dans un manoir du XIXe siècle avec 2 jardins en annexe, cet hôtel-restaurant élégant possède des chambres décorées dans des styles différents",113
Aire de camping-cars (flot bleu),Logement,Pesmes,70140,47.2767768,5.5661834,,291
1.2.3 Jouons,Activité,Champforgeuil,71530,46.8235387,4.83640779,Le Paradis des enfants de 0 à 12 ans. Aire de jeux de 1800 m² avec snack.,319
Gîte Limarry,Logement,Charny Orée de Puisaye,89120,47.88548,3.09633,"Au coeur de Charny Orée de Puisaye, à quelques pas du centre-ville, le Gîte de Limarry et son jardin, tout confort, accueille de 1 à 4 personnes.",429
Isabelle MININI,Activité,Dijon,21000,47.3228094,5.0441218,,19
Chez Mamie Géo,Logement,Chablis,89800,47.810556,3.801594,"À 5 min du centre-ville, près de l'Église Saint-Pierre, dans un quartier calme, nous vous proposons une maison à louer au cœur du village de Chablis p",424
L'amuse bouche,Restaurant,Bourogne,90140,47.5597958,6.91915418,,491
Caveau Saint-Felix,Activité,Beaune,21200,47.0226659,4.8348988,"Organisation des masters classes, des dégustations privées, des mâchons bourguignons, des anniversaires , etc.",7
La Bulle 1,Logement,Chapaize,71460,46.560067,4.727316,,382
Mas des Tines,Activité,Saint-Amour-Bellevue,71570,46.2431653,4.738505,"Depuis 1906, 5ème génération de vignerons Jérémie Giloux crée son propre domaine de 9 hectares en Saône et Loire à St Amour-Bellevue en 2002.",320
Restaurant L'Ecu,Restaurant,Sens,89100,48.198321,3.2825374,"Situé dans le centre historique de Sens, restaurant au design chic et feutré avec à la carte des plats traditionnels revisités avec inventivité.",467
Les Capucines,Logement,Villiers-Vineux,89360,47.943909,3.834544,,444
La maison du sculpteur,Logement,Faucogney-et-la-Mer,70310,47.8433211,6.5648819,,288
Bourgogne Montgolfière,Activité,Moroges,71390,46.748591,4.680403,Vols en montgolfière au dessus du vignoble de la Côte Chalonnaise.,316
Defaix Daniel-Etienne,Activité,Chablis,89800,47.8154877,3.7990783,,424
Les chambres du Clos Ligérien,Logement,Nevers,58000,46.981524,3.1594296,,251
Bar-Brasserie de la Tille,Restaurant,Les Maillys,21130,47.13687,5.340972,"Restaurant-bar à la campagne. Du fait maison avec saveurs et produits frais. Cuisine traditionnelle, salades repas l'été et le vendredi spécialités !",6
Le 3B,Logement,Beaune,21200,47.0234086,4.8400297,,7
Attelage Beaune Passion,Activité,Beaune,21200,47.0194497,4.8542083,Découverte du vignoble bourguignon en calèche tirée par deux chevaux le long de la route des Grands Crus.,7
Dynamiques Positives,Activité,Levernois,21200,46.9926258,4.8824445,Dynamiques Positives vous accompagne aussi bien dans la progression de votre jeu de golf que dans la réalisation de vos objectifs quelqu'ils soient !,7
Mba section aca (athletisme),Activité,Audincourt,25400,47.4971964,6.8136478,,133
Aux Délices de Mia,Restaurant,L'Abergement-Sainte-Colombe,71370,46.7571044,5.0041741,,307
Grenier Philibert,Logement,Ornans,25290,47.1034721,6.1594004,"Les nouveaux greniers d'antan, reprenant la méthode traditionnelle, vous emportent dans un univers de rêve et d'aventure...",145
Ferme de Montoing,Activité,Saint-Martin-sur-Nohain,58150,47.351112,2.964732,,260
Gîte Retour aux Sources,Logement,Villapourçon,58370,46.892771,3.906371,,245
Chalet de la Source,Logement,La Grande-Verrière,71990,46.979895,4.112996,,343
VINI HÔTEL,Logement,Beaune,21200,47.0108911,4.8452832,"L'hôtel se situe à 2 mn du centre ville et des Hospices de Beaune, à 10 mn de la gare SNCF, facilement accessible des autoroutes A6, A31 et A36.",7
Chambre n°G4197,Logement,Bief-des-Maisons,39150,46.707054,6.037705,,198
L'appart' du Sculpteur,Logement,Chevroches,58500,47.450062,3.544221,,233
Le Relais des Salines,Logement,Chapelle-d'Huin,25270,46.942221,6.194104,Chambres lumineuses et spacieuses dans un cadre historique lié à la voie du sel. Restauration régionale sur place.,171
Guillemot-Michel,Activité,Clessé,71260,46.4306535,4.8296463,,414
Gîte n°G1624,Logement,Barretaine,39800,46.820786,5.710061,,216
Le Grand Clos,Logement,Tanlay,89430,47.82698,4.07994,"Ancienne plus grande ferme du village, cette maison a été remaniée en 1840 afin d'accueillir un logis principal.",471
Le Manoir de L'Echauguette,Logement,Laignes,21330,47.8419757,4.3649507,,12
Site du Montgué,Site culturel,Asnan,58420,47.309038,3.554236,,234
Le Coucou,Logement,Gien-sur-Cure,58230,47.139992,4.097913,,231
"Résidences Thermales Résidence Castelet (n°102, 106, 111, 112, 113, 114, 120, 121, 122, 123 et 124)",Logement,Bourbon-Lancy,71140,46.6190444,3.7691244,Découvrez la Résidence Castelet à proximité des Thermes,313
Piscine de Poligny,Activité,Poligny,39800,46.8319686,5.70736591,"Venez vous ""rafraîchir"" et vous détendre entre amis, en famille ou en couple à la piscine de Poligny, sous rocher de la Croix du Dan.",216
Le Lacuzon,Logement,Moirans-en-Montagne,39260,46.4305976,5.72569956,"Hôtel de charme au centre du village. Les chambres sont équipées d'écran plat, wifi, salle de bain avec baignoire et linge de bain.",206
"Bouzereau Philippe, Château de Cîteaux",Activité,Meursault,21190,46.9764034,4.7726415,,38
Les Toisières,Logement,Monthelie,21190,46.990841,4.76974,,38
Chambres d'hôtes Saint-Nicolas,Logement,Vézinnes,89700,47.8923221,3.9440527,Nos chambres d'hôtes sont des maisonnettes individuelles ayant chacune une entrée privée. Elles sont organisées autour d'une cour dans laquelle vous p,471
Gîte du Chêne,Logement,Veuxhaulles-sur-Aube,21520,47.9435425,4.80328403,,12
Maison Régionale des Arts de la Table,Site culturel,Arnay-le-Duc,21230,47.1344613,4.48522065,,4
Domaine des Epoissets,Logement,Écromagny,70270,47.7892474,6.559149,,288
Les Chambres du meunier : Chambres d'hôtes,Logement,Courtelevant,90100,47.516075,7.081584,,503
Appartement - Chantal Droz-Vincent,Logement,Les Fourgs,25300,46.8319172,6.4040637,Appartement de 85m² au 1er étage avec balcon dans une maison en duplex avec un autre appartement. Près des pistes de skis de fond et alpin.,110
"Velovitamine - Balade Oenologique à vélo ""Côte de Nuits 1er Cru"" Dijon à Gevrey-Chambertin",Activité,Chenôve,21000,47.2935893,5.0010864,"Balade à vélo guidée dans les vignes, dégustation de crus de Bourgogne. Parcours easy adapté à tous au départ de Nuits StGeorges, Dijon Sud...",13
Restaurant Taillard,Restaurant,Goumois,25470,47.260244,6.945291,"Idéalement situé dans un charmant village jurassien à la frontière franco-suisse, venez découvrir un restaurant chaleureux dans un cadre tranquille.",98
Le Presbytère,Logement,Le Fay,71580,46.668352,5.326235,,378
Le gîte des Templiers,Logement,Dole,39100,47.0859,5.49855,,196
L'Atipik Jura,Logement,Plénisette,39250,46.7989771,6.0204061,Tipi bois grand confort,184
Poitout L&C,Activité,Chablis,89800,47.816836,3.788365,,424
PORTRAITS D’ARCHITECTES : Claude-Antoine Colombot (1747-1821),Activité,Besançon,25000,47.23507,6.02606,"Visite guidée sur le thème de l'architecture, dédiée à Claude-Antoine Colombot",81
A Tour de Roues,Activité,Arbois,39600,46.9014235,5.7708211,"Vente, location, réparation de vélos & escapades pour explorez le Coeur du Jura et ses richesses à vélo !",178
Médiathèque intercommunale,Site culturel,Commenailles,39140,46.801642,5.45301799,,182
La Calèche de Clem,Activité,Noyers,89310,47.6953151,3.9957636,Balade en calèche dans la cité médiévale de Noyers-sur-Serein. Mariages et autres événements à la demande.,442
"Balades sonores : Vauban, ses fortifications, sa Citadelle",Activité,Besançon,25000,47.2431592,6.0189455,"Cette balade sonore, réalisée pour une application smartphone, permet de découvrir le patrimoine de Vauban tel qu’il existait à la fin du XVIIe siècle",81
Hôtel Les Glycines,Logement,Vézelay,89450,47.465949,3.7464047,"Durant votre séjour, la principale préoccupation de l'Hôtel Les Glycines sera de vous faire partager l’authenticité de ce lieu.",419
Base nautique du Vézenay,Activité,Malbuisson,25160,46.8079029,6.30977568,,123
Mauger Thomas,Logement,Les Chalesmes,39150,46.6913359,6.0389617,"Gîte au cœur du Jura, idéal pour séjours nature et ski. Confort jusqu'à 8 pers., terrasse et parking.",198
Les Jardins de Fontaine,Activité,Fontaine-lès-Clerval,25340,47.419902,6.468529,"Maxime vous propose de découvrir son activité de maraîcher. Il produit, au sein de son exploitation, des légumes de saison, des replants de légumes...",146
Hôtel Parc Adélie,Logement,Montagny-lès-Beaune,21200,46.9917961,4.8467757,L'hôtel Adélie vous accueille aux portes de Beaune en Bourgogne dans un cadre calme et verdoyant.,9
La Colombière,Logement,Lurcy-le-Bourg,58700,47.184086,3.396358,,254
KANWITA - Ateliers et sorties Nature au coeur de la forêt,Activité,Mussy-sous-Dun,71170,46.23116,4.33033,"""Se reconnecter à la nature, avec une approche ludique, créative et sensorielle.""",326
Hôtel-bar-restaurant  LE TERMINUS,Restaurant,Précy-sous-Thil,21390,47.3895082,4.3052361,,61
Le Moulin Terrier,Logement,L'Abergement-de-Cuisery,71290,46.565964,4.956672,,335
La Maison de Léonie,Logement,Mouthier-Haute-Pierre,25920,47.03888,6.27592,Cette maison d'hôtes authentique et confortable dans un village pittoresque vous accueille toute l'année dans un cadre chaleureux.,171
Château de Loulans-Verchamp,Logement,Loulans-Verchamp,70230,47.446088,6.205227,,158
Machard de Gramont Bertrand,Activité,Nuits-Saint-Georges,21700,47.1461761,4.9365798,,44
Les Epicuriens,Logement,Ladoix-Serrigny,21550,47.0713562,4.87808634,"Maison indépendante avec sa terrasse privée, orientée sud. Cuisine équipée et séjour avec poêle à granulés. 2 chambres avec sdb privatives.",28
Point de vue du Fort Malher,Paysage,La Cluse-et-Mijoux,25300,46.8763281,6.37801408,,93
La Maison de Claudine,Logement,Saint-Sauveur-en-Puisaye,89520,47.6198105,3.19961926,"Gîte tout confort et équipé, à proximité des commerces.",473
La Combe sous les Roses,Logement,Bretigny,21490,47.3974,5.098468,,52
Gîte de Dront,Logement,Anost,71550,47.065094,4.120638,Vaste gîte de groupe communal niché au sein d'une authentique ancienne école de village de caractère.,231
Auberge au coeur des rêves - hébergement en dortoir,Logement,Grand'Combe-Châteleu,25570,46.99324,6.5913,"En plus du gîte d'étape, 14 couchages, l'auberge dispose également d'un gîte de 4 personnes tout confort. L'auberge est perchée à 1200 m d'altitude.",115
Restaurant le Cheval Blanc,Restaurant,Cressy-sur-Somme,71760,46.6958,3.86705,cuisine traditionnelle familiale,313
Résidence Villa Médicis,Logement,Paray-le-Monial,71600,46.452896,4.121344,"La résidence services séniors Villa Médicis vous propose une vie sécurisée et conviviale: appartements,services de conciergerie,restaurant,animations.",370
Le Relais de Carminouche,Logement,Chissey-sur-Loue,39380,47.0207,5.72227,Chambre d'hôte (type T2) de 1 à 4 personnes avec accès indépendant située  dans une maison individuelle de 70m2 à Chissey sur Loue.,74
Gîte Le Palet,Logement,Vareilles,71800,46.3094245,4.2678903,Gite meublé 8 personnes avec piscine,328
Mom Plume Créations,Activité,Beaumotte-Aubertans,70190,47.41977,6.1828,"Delphine Joffre personnalise toutes sortes d'objets avec votre prénom, une date spéciale... boule de Noël avec le prénom, une planche apéro...",129
Les vergers-potagers du château de Montigny-sur-Aube,Site culturel,Montigny-sur-Aube,21520,47.9525443,4.7788723,,12
La Clé des Champs,Logement,Villiers-les-Hauts,89160,47.72664,4.148232,Charmante petite maison de plain-pied au coeur du village de Villiers-les-Hauts à proximité l’église.,471
Bar La Renaissance,Restaurant,Saint-Amour,39160,46.4355966,5.3429495,"Avec son ambiance rétro et ses motos de collection de 1929 et 1941, ce bar-restaurant  est une adresse conviviale au cœur de Saint-Amour.",219
La Ferme des Coucous,Logement,La Favière,39250,46.7519779,6.0337952,,198
Halte aux 3 brins d'herbe,Logement,Chaumot,58800,47.25556,3.64129,,234
Lafarge Henri - Domaine de la Combe,Activité,Bray,71250,46.503736,4.721154,,310
L'Ecole des Vins de Bourgogne,Activité,Beaune,21200,47.0090711,4.8480371,"Amateurs, néophytes, passionnés, nous serons heureux de vous donner les clés qui ouvrent les portes de notre vignoble.",7
Le Moulin des tachyons,Activité,Chaumont-le-Bois,21400,47.9245108,4.57694451,"Le Moulin des tachyons, bien-être, remise en forme, relaxation, méditation ! Renforcer sa dynamique personnelle et retrouver son chemin de vie.",12
Vino Dilectio,Activité,Dijon,21000,47.31747,5.03428,,19
Le Village,Logement,Longvic,21600,47.2837226,5.05679847,,33
Améthyste,Logement,Lamoura,39310,46.399771,5.9656045,,203
Le Relais de Vézelay,Logement,Sermizelles,89200,47.53814,3.79316,,442
Appartement en grande maison - R613BEN42,Logement,Les Rousses,39220,46.4691102,6.07606419,,218
Au Pays,Restaurant,Besançon,25000,47.2358572,6.02329869,Une cuisine traditionnelle française et régionale.,81
Abbaye Sainte Marie de la Pierre-Qui-Vire,Site culturel,Saint-Léger-Vauban,89630,47.358347,4.062761,"Monastère bénédictin fondé en 1850 dans un site retiré et sauvage, au cœur du Morvan.",57
"Bungalow  ""campanule"" camping la pierre",Logement,Mélisey,70270,47.7755598,6.5798664,,288
Chalet - Denis Pagnier,Logement,Brey-et-Maison-du-Bois,25240,46.746318,6.252037,,123
Double et Triple écluses de Chavance,Paysage,Achun,58110,47.114412,3.633283,,234
Hôtel restaurant de la gare,Logement,Loulans-Verchamp,70230,47.4378994,6.21141672,"Hôtel-restaurant de la gare, situé à Loulans-Verchamp, à proximité des rives de l'Ognon et de la voie verte ""Chemin vert"".",158
Point de vue de Renédale,Paysage,Renédale,25520,47.0205244,6.27915181,,171
Le Gîte Rural du Rond de Bord,Logement,Saint-Parize-le-Châtel,58490,46.8343121,3.1682227,,259
Retable de l'église de l'assomption,Site culturel,Montot,70180,47.564877,5.620951,"Retables du maître-autel et des deux chapelles latérales en stuc polychrome. Ensemble homogène, mis en place lors de la construction de l'église.",273
Le Mastroquet,Restaurant,Gray,70100,47.4490122,5.59247032,Le Restaurant Au Mastroquet saura vous accueillir en toute convivialité et avec un raffinement certain pour la décoration et la présentation.,280
Villa Rose,Logement,Escolives-Sainte-Camille,89290,47.7190012,3.60516668,"Villa Rose située à Escolives derrière l'Eglise, propose des chambres d'Hôtes. Régine et Marc seront attentifs à vos besoins.",426
Les Gîtes de l'Orée du Bois - Nuage Rouge,Logement,Boussières,25320,47.1585078,5.90956395,"Séjournez au gîte l’Orée du Bois, un endroit apaisant avec une décoration inspirée de Nuage Rouge, chef Sioux, alliant confort et nature.",87
Récré'à'Elle,Activité,Chassigny-sous-Dun,71170,46.220418,4.287794,Confection accessoires textiles et retouches,326
La Fontaine,Logement,Vieilmoulin,21540,47.31169,4.67907,,49
Le Bar'Bu,Restaurant,Cosne-Cours-sur-Loire,58200,47.4109555,2.92611609,Le Bar’Bu vous accueille dans un cadre raffiné et cosy. Restauration bistronomique avec de délicieux plats gourmands !,235
Restaurant Le Chagny,Restaurant,Chagny,71150,46.9105871,4.7523079,"Le restaurant vous accueille dans un cadre élégant, doux et raffiné avec une décoration qui allie tranquillité et modernité.",317
Beau-Site Studios - Bruyère - Appt 4,Logement,Luxeuil-les-Bains,70300,47.820728,6.374041,"Jolis petits appartements situés dans une annexe de l'hôtel, accès jardin, piscine, bibliothèque, parking, wifi, Canal +.",285
Fromagerie Le Narbief-Le Bizot,Activité,Narbief,25210,47.1278246,6.68567037,Coopérative fromagère regroupant 21 exploitations. La boutique vous propose les produits issus de la fruitière et d'autres produits du terroir.,159
L’apogée,Logement,Thoirette-Coisia,39240,46.2687765,5.5361117,,179
Fruitière à Comté de Pontarlier - Les Monts de Joux,Activité,Pontarlier,25300,46.89838,6.33774,,152
Les Champs de l'Abbaye,Activité,Aluze,71510,46.8469247,4.686939,,360
Le Sourire de la Tuilerie,Logement,Bard-le-Régulier,21430,47.1443,4.29417,,57
Chalet du lac de Vouglans,Logement,Barésia-sur-l'Ain,39130,46.55349,5.69748,,189
Ravaut Gaston et Pierre,Activité,Ladoix-Serrigny,21550,47.0793544,4.8866447,Le Domaine Gaston et Pierre RAVAUT est un domaine familiale depuis 6 générations.,28
Appartement - chalet les Clochettes - P1022CAS00,Logement,Prémanon,39220,46.451915,6.0497967,,217
Les Prés de Bondus,Logement,Chéu,89600,47.964821,3.768461,Le gîte est une maison de plain-pied totalement indépendante dans un grand terrain entièrement clos.,477
La Belle Tourelle,Logement,Longecourt-lès-Culêtre,21230,47.15581,4.54685,,4
Gîte de groupe et familiale Gai soleil,Logement,Flangebouche,25390,47.086753,6.489534,,114
Lac de Pannecière,Paysage,Chaumard,58120,47.155027,3.895771,"Le lac de Pannecière est le plus grand de Bourgogne (520 ha), il se répand sur 7,5 km dans un joli site de collines boisées.",231
Cluzeaud Jean-Claude et Fils,Activité,Volnay,21190,47.0006101,4.7797822,,38
Dauvissat Vincent,Activité,Chablis,89800,47.811492,3.7999985,,424
Chambres d'hôte Au bon vivant,Logement,Dampierre-sur-Salon,70180,47.5619165,5.6841,"Les chambres d'hôtes ""Au bon vivant"" portent à merveille leur nom : cadre et hôtes chaleureux et dégustation de délicieux thés sur place.",273
Maison & Laboratoire de Louis Pasteur,Activité,Arbois,39600,46.9065649,5.76954424,"La maison de Louis Pasteur à Arbois est un lieu patrimonial absolument unique, encore habité par la présence du scientifique.",178
Domaine Drain,Activité,Jambles,71640,46.7715657,4.69739086,Le domaine Christophe DRAIN est heureux de vous accueillir dans son cadre typiquement bourguignon.,348
Domaine Taureau,Logement,Saint-Brisson,58230,47.2759999,4.09566387,,57
Les belles ouvrières - Apiculture,Activité,Champlitte,70600,47.6187658,5.5099721,"L'apicultrice Magali Klein propose toute une sélection de délicieux miels réalisés à Champlitte. Mais aussi pain d'épices, pollen, nougats, bougies...",271
Les serres de la mollière,Activité,Chèvremont,90340,47.629128,6.943254,,490
Le Colibri,Restaurant,Dommartin-lès-Cuiseaux,71480,46.498302,5.29780103,,412
Andréas corso - art cuir design,Activité,Rouhe,25440,47.0822849,5.9615546,,155
Le Bistrot des Planches,Restaurant,Les Planches-près-Arbois,39600,46.8783053,5.80648969,"Nos plats sont préparés sur place, avec un maximum de produits frais et locaux pour régaler vos papilles!",178
Gîte rural de Tremeux,Logement,Les Plains-et-Grands-Essarts,25470,47.3111583,6.87460899,"Située en pleine nature, cette vaste ferme comtoise rénovée de grande capacité est idéale pour vacances entre amis ou en famille.",98
Jura Ciel,Activité,Marnoz,39110,46.9501,5.83101,Jura Ciel vous propose des vols en montgolfières au dessus du Jura.,210
L' Ancien Presbytère,Logement,Ameugny,71460,46.525516,4.677637,,382
Maison Le Feu Follet,Logement,Lormes,58140,47.2844177,3.8198724,,244
Gîte de la forêt,Logement,Loulans-Verchamp,70230,47.4469497,6.19941094,Ce logement paisible vous offrira un séjour détente pour toute la famille. Ce gîte de 7 personnes est idéal pour un séjour en famille !,296
La Barinoise - La Marie'Messe,Logement,Avosnes,21350,47.378536,4.633079,"Idéalement situé, au centre du département",72
frédérique danse - exploratrice TYPO*graphique,Activité,Bellechaume,89210,48.0459065,3.6012306,ARTISTE GRAVEUR TYPOGRAPHE IMPRIMEUR SPÉCIALISÉE EN ART GRAPHIQUE/ÉDITION d'estampes & papeterie d'art/INITIATION à la gravure § à l'imprimerie d'art,421
Ibis Besancon La City,Logement,Besançon,25000,47.2353601,6.01493954,"Sur les bords du Doubs et à proximité immédiate  du centre ville, l'hôtel Ibis Besançon La City met à votre disposition ses 119 chambres confortables.",81
Le Bivouac,Restaurant,Pont-du-Navoy,39300,46.723588,5.784796,"Carte variée, spécialités régionales et suggestions du chef.  Pizzas à emporter tous les mercredis soir. Ouvert du 17 mars au 14 septembre 2025.",184
Vignoble de Villaines-Viserny,Paysage,Viserny,21500,47.556158,4.29457284,,61
Hôtel-restaurant de La Manse,Restaurant,Dornecy,58530,47.4348,3.557062,,233
Gavignet Maurice - Gavignet Père et Fils,Activité,Nuits-Saint-Georges,21700,47.1409854,4.9436655,"Vinificateur du Domaine Familial depuis le millésime 2003, Arnaud GAVIGNET exploite le Domaine depuis le millésime 2008.",44
Le Marie Tony,Logement,Navour-sur-Grosne,71520,46.353804,4.545147,,410
Chaumonnot Jean-Louis,Activité,Bissey-la-Côte,21520,47.9135996,4.7081402,,12
Boursot Père et Fils,Activité,Chambolle-Musigny,21220,47.1860591,4.9508777,,24
Le Caboulot Lyonnais,Restaurant,Chagny,71150,46.908074,4.7532282,Cuisine traditionnelle et régionale.,317
Chambres d'hôtes DUPREY Yann,Logement,Épinac,71360,46.990424,4.51407,,342
Artcafé,Restaurant,Saint-Saulge,58330,47.1042,3.51248,"Dans le bâtiment de l'ancien hôtel de France Bernet, l'ex-styliste parisien, a ouvert l'Art Café, un lieu atypique où le commerce sert de prétexte à l",256
Champagniseur Jacquier Louis,Activité,Quintigny,39570,46.7312975,5.51448171,"Prestataire de services pour les viticulteurs, caves coopératives et négociants spécialisé dans l'effervescent.",180
Le Fournil Jurassien,Restaurant,Le Pasquier,39300,46.8011328,5.9061585,"Boulangerie, pâtisseries et petite restauration : burgers, pizzas, quiches... à emporter ou sur place en terrrasse.",184
Aux Plaisirs d'Antan,Restaurant,Lons-le-Saunier,39000,46.6724,5.55469,"Restaurant au décor chaleureux situé au centre ville de Lons-le-Saunier, parking à proximité. 
Plats régionaux et montagnards.",204
Ecole d'Equitation - Les Gambades,Activité,Gâcogne,58140,47.226088,3.887417,,244
Le Hameau de Thégo,Logement,Pont-du-Navoy,39300,46.71835,5.77321,"Maison de caractère haut de gamme rénovée, 250m2, pour 6 personnes, toute commodité, à 300 m de la rivière de Ain, proche lac de Chalain et cascades.",216
Auberge La Lucarne aux Chouettes,Restaurant,Villeneuve-sur-Yonne,89500,48.08258,3.292887,"La Lucarne aux Chouettes se situe au bord de l'eau, au cœur de Villeneuve sur Yonne. Cet établissement a été rendu célèbre grâce à sa créatrice Leslie",484
La Capitainerie,Restaurant,Baume-les-Dames,25110,47.3410911,6.3587344,Terrasse agréable au bord du canal et buffet à volonté,79
Chapelle de Saint-Georges,Site culturel,Saint-Symphorien-des-Bois,71800,46.3216966,4.26664347,"Autrefois sous le vocable de Saint-Fortuné, elle semble de fondation très ancienne, elle aurait été édifiée au Xème siècle.",328
Le belvédère du Duchet,Paysage,Nanchez,39150,46.5116176,5.8397192,Le belvédère du Duchet vous offre une vue sur la combe de Prénovel les Piards.,203
Charles Sander,Logement,Salins-les-Bains,39110,46.9357663,5.87677359,Ancienne maison d'un négociant en vins entièrement rénovée et désormais placée sous le signe du bien-être et de la détente.,223
Hôtel particulier - Hôtel de Froissard,Site culturel,Dole,39100,47.0918062,5.4911962,"L'hôtel de Froissard a été construit vers 1620, son architecture marque la fin de la Renaissance comtoise et la transition avec le style classique.",196
Le Ru Blanc,Paysage,Val-Suzon,21121,47.410148,4.898834,,69
"Brionnais City - Gîte ""Paris""",Logement,La Clayette,71800,46.288113,4.300428,"Un voyage au coeur du Brionnais, un moment hors du temps, des gites rénovés, un extérieur avec bassin naturel et jacuzzi pour se ressourcer",328
Villalys,Logement,Saint-Honoré-les-Bains,58360,46.904,3.83861445,,249
La Ligne des Hirondelles,Site culturel,Hauts de Bienne,39400,46.5263064,6.0235415,Une des plus belles lignes ferroviaires de France qui traverse le Jura de Dole à St-Claude. Le long de ses 123 km découvrez une variété des paysages.,209
Belvédère du Bénédegand,Paysage,Ney,39300,46.7328604,5.892663,"Il offre un triple point de vue remarquable sur la forêt de la Joux, la ville de Champagnole et le mont Rivel, Cize et Ney, la reculée de Vers-Cul.",184
Le Gustalin,Restaurant,Dole,39100,47.0918057,5.49329279,Restauration traditionnelle et régionale à base de produits frais.,196
"Camion pizzas ""Jonathan""",Restaurant,Champlitte,70600,47.61636,5.51423,Retrouvez Jonathan et ses pizzas cuites au feu de bois chaque lundi soir sur la place de la mairie à Champlitte et le vendredi soir à Lavoncourt.,271
Appartement - Patrick Todeschini,Logement,Pontarlier,25300,46.906227,6.357841,"Appartement situé au centre-ville de Pontarlier,  à quelques pas de la place du marché et de la gare.",152
Habitat Jeunes La Cassotte,Logement,Besançon,25000,47.2463615,6.03113676,"Espace d'accueil, de vie et logement temporaire. Location de salle. Accueil de personnes de passage (Eurovélo6, Via Francigena). Lieu de spectacles.",81
Studio 3,Logement,Juillenay,21210,47.361132,4.278374,,57
Les Cornillaux,Logement,Leynes,71570,46.271204,4.727632,,373
Les attelages de l'Auxois,Activité,Arnay-sous-Vitteaux,21350,47.4449865,4.4976428,,72
La source Fleurie,Activité,Froideterre,70200,47.70223,6.52664,Grégory est un horticulteur qui cultive toutes sortes de fleurs et de légumes.,300
Le Paris-Saïgon,Restaurant,Decize,58300,46.8298103,3.4628757,"Situé dans le centre-ville de Decize, cuisine vietnamienne et chinoise servie en salle ou en terrasse, face à la Promenade des Halles et à la Loire.",237
Gîte Le Tartot,Logement,Pierrefontaine-les-Varans,25510,47.2217414,6.5770369,Venez vous ressourcer au cœur du Doubs authentique dans notre gîte qui est une ancienne ferme comtoise à 750 m d'altitude...,149
La Chambre à Grain,Logement,Fleys,89800,47.8136004,3.8598385,,424
Piscine de la Vallée des Vaux,Activité,Saint-Jean-de-Vaux,71640,46.80987,4.70215,La piscine est surveillée et possède deux bassins : un pour les petits et un autre pour les grands.,359
Le Manoir,Logement,Saint-Péreuse,58110,47.057602,3.81626299,,249
BHV Bar de l'Hôtel de Ville,Restaurant,Maîche,25120,47.2522693,6.80172283,Petite restauration à emporter ou sur place.,126
La Maisonnette de charme - Gîte,Logement,Dampierre-sur-Salon,70180,47.5569214,5.6777506,"Petite par la taille mais grande par le confort, la petite maisonnette de charme à Dampierre-sur-Salon saura vous séduire grâce à ses nombreux atouts.",273
Golf du Val de Sorne,Activité,Vernantois,39570,46.6396546,5.56354522,"Superbe golf de 18 trous, classé parmi les plus beaux parcours de France. Les golfeurs de tout niveau pourront y trouver leur bonheur. De 6h à 21h.",205
André Misteli,Logement,Mignovillard,39250,46.800499,6.113997,Appartement dans ancienne ferme de 1800,112
Marché aux Vins - Dégustation Découverte,Activité,Beaune,21200,47.02165,4.83734,visite et dégustation de 5 vins – environ 40 min,7
"Gîte ""Au cœur de la vallée""",Logement,Laissey,25820,47.29723,6.23298,"Pour vos vacances, dans le petit village de Laissey, à la campagne niché dans un méandre de la rivière ""Doubs"".",158
Giant city Maîche,Activité,Maîche,25120,47.24106,6.78534,Découvrez le meilleur des marques Giant et Liv au sein de notre magasin vélo Giant City Maiche. Ressentez la passion et l’expertise Giant.,126
Terroirs & Millésimes,Activité,Chalon-sur-Saône,71100,46.7795634,4.8611385,Notre philosophie : partager notre passion et transmettre notre expertise. + 1200 vins et eaux de vie. Vins BIO et vins étrangers. Dégustation en cave,318
Restaurant d'Application - Toussaint Louverture,Restaurant,Pontarlier,25300,46.9136799,6.3462202,,152
Aéro-Club Beaunois,Activité,Beaune,21200,47.0111874,4.89355735,Aéroclub école et loisir aérien,28
Chronovert,Activité,Mézilles,89130,47.707009,3.202362,"Pratique des sports tout terrain tels que l'enduro, un espace avec une spéciale, des bois et des modules ; pour le motocross, un circuit homologué (ac",472
"Sentier de randonnee ""la Voie du Sel et du Charbon""",Activité,Villafans,70110,47.5807377,6.4719665,,306
Logement pèlerin de La Charité-sur-Loire,Logement,La Charité-sur-Loire,58400,47.1775205,3.016423,Au cœur du site prieural de La Charité-sur-Loire et à quelques mètres de l’église Notre-Dame.,230
Médiathèque Intercommunale de la Vallée du Drugeon,Site culturel,Frasne,25560,46.8569357,6.1610852,,112
Le Champ Serein,Logement,Marigny,71300,46.705967,4.482651,,381
Jump Street Trampoline Park,Activité,Valentigney,25700,47.4490587,6.8368643,,173
L'Escale Cirésienne,Logement,Cirey-lès-Pontailler,21270,47.3088,5.29567,"Gîte de 50 m² pour 2 personnes, entièrement rénové, en mars 2022 de par son confort et son charme, vous invite à vivre un séjour inoubliable.",8
Hôtel & Spa Les Sept Fontaines,Restaurant,Tournus,71700,46.5644827,4.90747863,"Un hôtel 4 étoiles au cœur de la Bourgogne, avec 39 chambres, un restaurant bistronomique, un SPA, et un caveau de dégustation !",409
L'Haut'Antique,Logement,Montlebon,25500,47.034959,6.604658,"Gite de charme atypique dans une ferme restaurée à proximité des pistes de ski, pêche, nombreux sentiers VTT. Proximité du Saut du Doubs.",137
"Accueil Paysan ""Sur Laisia""",Logement,Septmoncel les Molunes,39310,46.3562111,5.92434658,"Anciens paysans, Pascale et François vous accueillent dans leur chalet  d'estive à 500m de la Ferme de Laisia.
Gîte pour une famille de 4/5 personnes.",221
Domaine Saône Valley,Logement,Traves,70360,47.6139817,5.9747047,Vivez des moments inoubliables comme nulle part ailleurs !  Le Domaine Saône Valley vous accueille toute l'année pour vivre des vacances uniques.,303
La Ferme des Bassets,Activité,Vareilles,71800,46.3146198,4.2540958,"Découverte de l'exploitation et des animaux de la ferme (volaille, moutons, lapins, poneys, chèvres, veaux, cochons, âne).",328
"Jeu de piste -  ""Meurtre à la Saline royale""",Activité,Arc-et-Senans,25610,47.0331753,5.7776263,Cet atelier sous forme de jeu de piste en extérieur permet de découvrir tous les acteurs stratégiques de la Saline royale et la fonction des bâtiments,74
Woka marnay - espace enfants,Activité,Marnay,70150,47.2894047,5.77687822,,287
Le Mont Blanc,Restaurant,Chalon-sur-Saône,71100,46.7794996,4.85115657,"Cuisine traditionnelle, ambiance familiale, produits frais.",318
Écuries K des Lys,Activité,Saulieu,21210,47.2946496,4.23498486,,57
Corravillers - gite d'etape - la haute fourche,Logement,Corravillers,70310,47.9027068,6.64569854,,288
Campanile Dijon-Est Saint-Apollinaire,Restaurant,Saint-Apollinaire,21850,47.33055,5.076937,,53
Aéro-Club de la Côte-d'Or,Activité,Darois,21121,47.3861237,4.9451254,,47
Gite ferme bio à They,Logement,Sorans-lès-Breurey,70190,47.3835901,6.06891632,,296
Poupet vol libre,Activité,Salins-les-Bains,39110,46.9724635,5.86485385,L'envie de voler vous trotte dans la tête? Nous détenons le secret de la guérison! L'école est labellisée par le Fédération Française de Vol Libre.,223
Asinerie d'Eldamar,Activité,Champdôtre,21130,47.18407,5.30078,,15
Château de Saint-Aubin - Maison Prosper Maufoux : Expérience Grands Crus,Activité,Saint-Aubin,21190,46.94994,4.70941,"Venez découvrir les vins les plus prestigieux de la maison Prosper Maufoux au Château , dans le cadre d’une dégustation privée au cœur de ses caves.",317
La Terrasse de la Tour,Logement,Beaune,21200,47.0243616,4.83856558,"Appartement classé 4 étoiles, situé dans l'Hôtel de la Rochepot au centre historique de Beaune",7
Bar brasserie - Le Central,Restaurant,Saint-Claude,39200,46.3878269,5.8642627,,221
Jean-Pierre TRESCH,Activité,La Neuvelle-lès-Lure,70200,47.72089,6.55723,"Bzz, Bzz Les abeilles de la Neuvelle lès Lure vous proposent leur miel local de forêt et/ou toutes fleurs.",300
Cabane flottante - Domaine de la Combe Rossignol,Logement,Vernois-lès-Vesvres,21260,47.6384902,5.15331654,"Au milieu de l'étang ... la cabane flottante est un havre de paix où se ressourcer en couple, en famille, entre amis",60
Le Vesontio,Logement,Besançon,25000,47.2590776,6.00842714,L’hôtel Vesontio saura vous offrir une étape paisible et confortable avec ses vastes chambres.,81
"ATELIER DECOUVERTE A L’OBSERVATOIRE : ""A LA SECONDE PRES""",Activité,Besançon,25000,47.2474417,5.9897384,Depuis 1967 la seconde donnée par les horloges atomiques est définie par rapport au changement d’état de l’atome de césium.,103
Site archéologique de Bibracte,Site culturel,Saint-Léger-sous-Beuvray,71990,46.93218,4.04752,"Au sommet du mont Beuvray, recouvert de 1 000 hectares de forêt, une capitale gauloise est mise au jour par les archéologues : Bibracte.",343
Atelier de tournage sur bois,Activité,Neuvelle-lès-la-Charité,70130,47.5392076,5.9505368,"Passionné par le bois, Claude GRANDJEAN réalise des objets en bois tourné. Vous pouvez  le voir sur de nombreux marchés artisanaux en été ou chez lui.",303
Balcon du Mont d’Or,Logement,Métabief,25370,46.7693773,6.35365632,"Au pied des pistes dans une résidence située à 200 mètres des remontées mécaniques.
Appartement rénové offrant une vue montagne dégagée.",131
Location saisonniere - la clef sous le paillasson,Logement,Jouhe,39100,47.140915,5.489105,,224
Gîte de la Fontaine Ronde,Logement,Loray,25390,47.1535005,6.4962049,"Le Gîte de la Fontaine Ronde vous accueille pour vos vacances, week-end, séminaires, fêtes entre amis ou réunion de famille.",144
Centre Omnisports Pierre Croppet,Activité,Besançon,25000,47.2481251,5.97261428,Une structure unique en France. Accueil loisirs durant les vacances scolaires.,150
Location de vélos - Office de tourisme CAP Val de Saône – Bureau de Pontailler-sur-Saône,Activité,Pontailler-sur-Saône,21270,47.3041716,5.4173617,"Location de vélos adultes et enfants (20"" et 23""), classiques ou électriques d'1h, 2h, 1/2 journée, à la journée ou plus.",48
Bar-Brasserie la Luxoise,Restaurant,Gemeaux,21120,47.47741,5.13116,"Bières 100% Bio et locales
Bar & évènement : vendredis et/ou samedis
Boutique ouverte du lundi au vendredi 9h-18h
Location de tireuses",35
Poterie les mains et la terre,Activité,Bief,25190,47.32627,6.76724,"Vente de poterie unique en haute qualité. Vaisselle et décoration interieure et exterieure. 
Cours de poterie pour débutants à partir de 12 ans.",151
La Tiny Cluny,Logement,Cluny,71250,46.43052,4.66767,"Située à seulement quelques minutes à pied du centre historique, profitez d’un séjour unique dans cette tiny house « 4 saisons » entièrement équipée.",329
Le Bistrot Charolais,Restaurant,Paray-le-Monial,71600,46.4670743,4.11358711,,370
Aire de service pour les campings-cars,Logement,Vinzelles,71680,46.2724762,4.7686887,,331
"Gîte ""La Maison du Canal""",Logement,Chagny,71150,46.9018361,4.75384101,"Maison de plain pied pour 4 personnes au bord du canal du centre, face à la voie verte, proche du centre ville et de la forêt, quartier calme.",317
Musée Jean Larcena,Activité,Le Val d'Ocre,89110,48.1872246,3.2763907,Le musée accueille des expositions temporaires d'art contemporain et l'exposition permanente du poète et aquarelliste Jean Larcena.,467
Au p'tit du haut,Logement,Lantenay,21370,47.3426854,4.86389311,"Studio indépendant, tout confort: cuisine équipée, salle de douche et wc, wi-fi gratuit, 2 couchages (une pièce principale avec un lit et un bz).",21
La Maison du Haut,Logement,Tonnerre,89700,47.85532,3.97178,Maison de famille ou d’amis de 250m2 avec 6 chambres pouvant accueillir jusqu'à 12 personnes.,471
Aire de camping-car,Logement,Château-Chalon,39210,46.7549728,5.63117299,,197
Le Hérisson,Logement,Doucier,39130,46.6556,5.779728,,189
Matthieu fishing,Activité,Reugney,25330,47.2466937,6.04036569,,81
Chevallier Yves,Activité,Vosne-Romanée,21700,47.1622645,4.9558009,,44
"Visite privative ""Epicurienne"" à la Maison Jean Loron",Activité,La Chapelle-de-Guinchay,71570,46.2126411,4.7748608,"Visite avec dégustation de 5 vins et assortiment gourmand. 
Durée : 1h à 1h30.",393
Église Saint-Claude,Site culturel,Bouhey,21360,47.199497,4.66822749,,49
Les hirondelles,Logement,Blye,39130,46.621776,5.7031851,,189
Guilaine BASCOP,Activité,Antully,71400,46.9665096,4.3064798,"Arrêt obligé dans une ferme aux escargots en Bourgogne!
Un cadre très nature, des escargots pas stressés du tout!
Des spécialités étonnantes!",309
La Place,Logement,La Celle-en-Morvan,71400,47.01599,4.184305,,309
Poupet - Gîte de l'Ermitage,Logement,Salins-les-Bains,39110,46.9405708,5.88328879,"Un sympathique meublé aménagé dans une maison de campagne qui vous permettra de profiter du calme, de la nature, de la forêt jurassienne. Le paradis ?",223
Jeux pour enfants à Clamecy,Activité,Clamecy,58500,47.461615,3.516129,"Espace de jeux à destination des enfants avec modules divers, donc toboggan.",233
Food Truck - Pizz'Arlequin,Restaurant,Mouthe,25240,46.7130721,6.1945779,"Votre food-truck vous propose : Pizza au feu de bois (pâte faite maison), carpaccio, lasagnes bolognaises. 
Situé face au Gîte « Art et Randonnée »",140
Le Pré Bailly,Logement,Vuillafans,25840,47.0638266,6.21302939,"Pour les amateurs de randonnée et VTT, une étape en bord de Loue, idéale sur le GR145 et la via francigena.",145
Domaine des Marnes Blanches,Activité,Sainte-Agnès,39190,46.6098787,5.4722569,"Le Domaine des Marnes Blanches s'étend sur 12 hectares dans le Sud Revermont, et réparti en Chardonnay, Savagnin, Trousseau, Poulsard et Pinot Noir.",226
Réservoir de Chazilly,Paysage,Chazilly,21320,47.1887171,4.60136773,,49
Françoise Mussel,Activité,Mont-Saint-Vincent,71300,46.6312735,4.4780363,"Œuvre en grès émaillé, cuisson réductrice dans un four à gaz, 1300°.",381
Marion Rouchet Céramique,Activité,Pesmes,70140,47.2822,5.56219,"Production de céramique artisanale. Objets du quotidien et décoratifs en grès, pièces uniques ou en petite série fabriquées au tour, au colombin...",291
La Virgule,Restaurant,Tanlay,89430,47.8481874,4.0854375,La Virgule est une petite pause pour se restaurer à l'entrée du Château de Tanlay.,471
Fruitière de la Brune - La Mare,Activité,Maisons-du-Bois-Lièvremont,25520,46.9853278,6.40035942,,147
Michèle Coustou,Activité,Châteauneuf,21320,47.2192059,4.64050676,Sculpture animalière. Michèle Coustou s'est installée au pied d'un château médiéval pour réaliser ses œuvres: des pièces animalières uniques.,49
Camping la pierre,Logement,Mélisey,70270,47.7755598,6.5806818,"Camping au cœur du  Plateau des 1000 étangs, lieu idéal pour la randonnée pédestre, équestre et vélo. Nombreux emplacements et commerces à proximité.",288
Forêt de chaux,Paysage,La Vieille-Loye,39380,47.0850853,5.65795898,"3ème forêt française par sa superficie (2ème pour les feuillus), cette forêt résonne encore des métiers traditionnels et des légendes.",211
Appartement Bouhelier,Logement,Jeurre,39360,46.3670456,5.7074632,,186
Chapelle des Forges-de-la-Ferrière,Site culturel,Jougne,25370,46.746564,6.38111359,,122
Gîte de la Combe,Logement,Désandans,25750,47.533179,6.6735376,Entourés par la nature mais proches des services et des magasins vous pourrez trouver tranquillité et dynamisme au gîte de la Combe !,75
Le Tilleul,Logement,Jalogny,71250,46.400674,4.627477,,329
Le Gîte des Chasseurs,Logement,Dampierre-sous-Bouhy,58310,47.53781,3.13718,,473
Trapet-Rochelandet,Activité,Gevrey-Chambertin,21220,47.2236082,4.9695417,,24
Gîte la Grenouillère,Logement,Lavau,89170,47.59664,2.98321,Gîte familiale et chaleureux situé dans centre Bourg a proximité du Château de SAINT FARGEAU et Guèdelon,460
Gîte le Familial,Logement,Émagny,25170,47.3137863,5.86645418,,148
Ferme de la Fontaine Géry,Logement,Tonnerre,89700,47.875303,3.874047,Chambres d'hôtes de charme.,424
Saveurs de La Chaume,Activité,Amanzé,71800,46.3319199,4.24756041,"volailles fermières biologiques, charcuteries artisanales à l'ancienne, terrines artisanales bocaux 180g",328
Camping de la Bucle,Logement,Morbier,39400,46.5429058,6.01900577,"À environ 1000 mètres d'altitude, le Camping de la Bucle vous accueille à Morbier au cœur du parc naturel régional du Haut-Jura.",209
Gîte n°G1940,Logement,Clairvaux-les-Lacs,39130,46.576182,5.74927,,189
Le 24 - F1 32 m²,Logement,Luxeuil-les-Bains,70300,47.8194988,6.37953149,"À 100 m des Thermes. Appartements rénovés proches tous commerces. Parking dans cour privée. Cuisine équipée. Internet. Situés au 1er étage, calmes, ..",285
La Barboulotte,Logement,Saint-Léger-Vauban,89630,47.3852025,4.0463108,"La Barboulotte. appartement de 90 m2  comprenant une cuisine équipée, un salon séjour, trois chambres , salle de bain privée , wc indépendant. 
Terras",419
Eglise de Saint-Pierre et Saint-Paul de Cravant,Site culturel,Deux Rivières,89460,47.6818659,3.68929266,L’église Saint Pierre Saint Paul est un édifice remarquable. Elle possède une architecture unique en Bourgogne.,434
Le Café Parisien,Activité,Saulieu,21210,47.2791658,4.228734,,57
Envie de Crux,Logement,Crux-la-Ville,58330,47.14854,3.50625,"Gite dans une ancienne fermette pour 2 personnes décorés avec goût, proche de l'étang du merle.",254
Maison de vigneron - Jean-Luc Tahon,Logement,Flavigny-sur-Ozerain,21150,47.511854,4.532693,,70
La Grande Mélogue,Logement,Lavault-de-Frétoy,58230,47.1057579,4.01571793,,231
FORMOSA DIJON,Logement,Étaules,21121,47.408089,4.942847,,25
Le Chemin des Sens - Art et artisanat d'art,Activité,Besançon,25000,47.23592,6.02173072,"Vibrez aux côtés des artistes ! Le Chemin des Sens, c'est la rencontre d'artistes et d’artisans d'art, avides d'échanger autour de leur passion!",81
Cottage du vieux moulin,Logement,Ravilloles,39170,46.426863,5.805907,,190
Les Dames de la Saugiat,Logement,Le Fied,39800,46.76934,5.72283,Frédérique vous accueille dans son magnifique chalet en pleine nature. Réservation pour deux nuits minimum en juillet et aout; sinon une nuit en deho,216
Techni-Café,Site culturel,Devecey,25870,47.3304712,6.0164738,"Techni-Café, enseigne de vente de matériels, de thé et de café sous la marque Dame blanche, propose aussi de faire découvrir au grand public le café!",101
VSD39,Activité,Dole,39100,47.1025598,5.5016487,"Le V.S.D 39 est un complexe multisport et loisirs  Trampoline Park, Padel, Badminton et Foot indoor",196
Le Lacuzon - studio en résidence - R411BAUD00,Logement,Les Rousses,39220,46.4622434,6.0704898,,218
Le Cadran,Restaurant,Moulins-Engilbert,58290,46.9858916,3.8110021,"Cuisine traditionnelle,  alliant fait-maison et produits de qualité, saveurs morvandelles, bourguignonnes et alsaciennes. Pizzas possibles en soirée.",249
Chez Marie,Logement,Mont-Saint-Vincent,71300,46.631417,4.4782298,Meublé de tourisme composé de 2 chambres doubles (une avec lit de 160 et une avec un lit de 140 cm).,381
Ferme du Champ Bressan,Restaurant,Romenay,71470,46.5013943,5.06660434,"Le domaine du Champ bressan, construit au début du XVIIIème siècle, vous fait découvrir l'organisation d'une ferme bressane typique.",376
La Fée Mohair,Activité,Trois-Vèvres,58260,46.91528,3.41496,,246
Beauregard,Logement,Saint-Claude,39200,46.3924643,5.8613759,,221
Novotel Belfort Centre Atria,Logement,Belfort,90000,47.6422608,6.86207771,Hôtel 4* avec Centre de Congrès au cœur de Belfort,489
89G1622,Logement,Bessy-sur-Cure,89270,47.621765,3.741216,,478
Hôtel de la Poste,Restaurant,Avallon,89200,47.48972,3.90872,L'Hostellerie de la Poste a été l'un des premiers restaurants triplement étoilés par le Guide Michelin en 1935.,419
Les Rosiers d'Y,Logement,Nevers,58000,47.0020332,3.14783493,Maison indépendante de 3 chambres dans un quartier calme à proximité du centre-ville. Des jeux dans le jardin sont à disposition des enfants.,251
Castel Saint-Denis,Site culturel,Scey-Maisières,25290,47.09563,6.08213,"Juché au sommet d'un éperon rocheux, surplombant la vallée de la Loue, le Château de Scey s'étend sur 250m de longueur pour 70 m au plus large.",145
Le Caveau,Restaurant,Baume-les-Dames,25110,47.351201,6.362401,Pizzas généreuses préparées sous vos yeux. Cadre typique.,79
Belvedere d'etobon,Paysage,Étobon,70400,47.616292,6.676662,,277
Diabolic Pizza,Restaurant,Lamarche-sur-Saône,21760,47.272447,5.384296,"Vente de pizzas artisanale, tacos, burgers et paninis sur place et à emporter.",29
Hostellerie Bourguignonne,Restaurant,Verdun-sur-le-Doubs,71350,46.8906709,5.0261227,"Temple de la pôchouse. Profitez de la terrasse aux beaux jours. Privatisation possible. Premier prix Tradition d’aujourd’hui Gault et Millau, 2 toques",413
Le chant des oiseaux - Tiny House,Logement,Viry,71120,46.4685853,4.33685262,"Au cœur du bocage Charolais, en toute tranquillité, profitez de cet hébergement insolite en Tiny House pour vous détendre.",322
Le Clos de Marie - Studio Pomme,Logement,Paray-le-Monial,71600,46.45104,4.12488,,370
La Saigne,Logement,Varennes-sous-Dun,71800,46.2931923,4.35175423,"Entre prairies et forêts, sur une exploitation agricole traditionnelle du  Charolais Brionnais, Alain propose, dans une maison indépendante,",328
Berthenet et Fils,Activité,Montagny-lès-Buxy,71390,46.70534,4.67092,"Le domaine Berthenet est situé à Montagny les Buxy, village typiquement bourguignon. La famille Berthenet cultive des vignes depuis environ 4 siècles.",316
Aire de Camping Car de Saint-Amour,Logement,Saint-Amour,39160,46.432999,5.342279,,219
Pêche sur l'Ognon,Activité,Gray,70140,47.27981,5.56836,Plusieurs parcours de pêche de la carpe de nuit existent sur le secteur de Pesmes ainsi qu'un ponton personne à mobilité réduite,291
Fernandez,Activité,Chorey-les-Beaune,21200,47.04906,4.87016,,28
Lavoir de Beines,Site culturel,Beine,89800,47.8203534,3.71916299,,424
Château d'Epiry,Site culturel,Saint-Émiland,71490,46.8803993,4.49303883,"Ayant conservé de l’époque médiévale ses quatre tours rondes, le château d’Epiry surprend par son implantation à flanc de coteau.",392
Table d'orientation,Paysage,Ternant,58250,46.750878,3.837792,,245
Les Balcons du Lac,Logement,Grande-Rivière Château,39150,46.531602,5.9179955,"Gite ""Les Balcons du Lac"" à Grande-Rivière, 85m² au bord du lac de l'Abbaye, pour 4 adultes. 2 chambres tout confort, terrasse, jardin, baignoire.",222
Le Relais de Franche-Comté,Restaurant,Valdahon,25800,47.1479986,6.33309245,Cuisine traditionnelle et régionale.,172
Le Lamartine,Restaurant,Mâcon,71000,46.3035471,4.833472,"Dans cette maison bicentenaire, on savoure une cuisine régionale dans un cadre art déco élégant.",355
Pierre de la Caraude,Paysage,Aillevillers-et-Lyaumont,70320,47.935043,6.373942,"Visible dans le bois de la Caraude, ce gros bloc erratique en équilibre évoque le profil d'une sorcière (caraude, en patois local).",267
L'Atelier du hibou,Activité,Savoyeux,70130,47.56069,5.73914,Création de mobilier et décoration en fer forgé et autres matériaux de récupération.,273
La Sablière communale de Villecomte,Activité,Villecomte,21120,47.508657,5.029758,,26
La Fabrique Pluriel,Activité,Marcilly-la-Gueurce,71120,46.3990598,4.30049681,La fabrique Pluriel vous propose des produits Bourguignons fabriqués au cœur du bocage Charolais.,322
Bibliotheque municipale,Activité,Broye-Aubigney-Montseugny,70140,47.31485,5.50852,,291
Hôtel Epona,Restaurant,Sens,89100,48.19902,3.28253,"L'hôtel Epona Sens un véritable lieu de vie au coeur de Sens, face à l’hôtel de ville, il offre une vue imprenable sur la majestueuse cathédrale.",467
Église Saint-Laurent,Site culturel,Thomirey,21360,47.081607,4.590625,,4
Guenard Didier,Activité,Beaumont-sur-Grosne,71240,46.6693821,4.85632895,"Didier Guenard,  gepetto du tonneau, explorateur de courbe !",401
Église Saint-Laurent,Site culturel,Le Creusot,71200,46.8058867,4.42205958,"L'église Saint-Laurent du Creusot a été construite entre 1842 et 1848.  Vitraux des Frères Rault, maîtres-verriers à Rennes (1954).",332
L'Horloge,Restaurant,Avallon,89200,47.487254,3.907194,"Café, restaurant, bar d'ambiance et boutique de produits locaux.",419
Les Chalets de l'Yonne,Logement,Crain,89480,47.53379,3.5535,Village de 5 gîtes indépendants (dont 1 PMR) pouvant accueillir de 2 à 10 personnes. Idéal pour des vacances en famille ou en groupe ( 35 personnes) .,233
La petite Seine,Logement,Buncey,21400,47.8220328,4.5582528,,12
L'Art Doise,Restaurant,Dole,39100,47.091244,5.492976,restaurant de cuisson sur pierre,196
Gîte n°G1927,Logement,Chaux-des-Crotenay,39150,46.656925,5.953362,,222
Podor Stéphane,Activité,Irancy,89290,47.7137258,3.665993,,458
Les Tours,Site culturel,Decize,58300,46.8283278,3.45888691,,237
La Cabane de l'Etang,Logement,La Chapelle-Naude,71500,46.581688,5.218892,,353
L'Echappée Gourmande,Restaurant,Saint-Amour,39160,46.4363147,5.34226396,"Une cuisine bistronomique et joyeuse, toujours renouvelée, avec une carte qui suit le cours des saisons.",219
Clos Bellefond - Domaine Louis Nie,Activité,Santenay,21590,46.9114092,4.7008504,,317
La Ferme de la Bussière,Logement,Bissy-sous-Uxelles,71460,46.568315,4.721776,"Située dans un petit village vigneron, nous vous accueillons dans notre ferme du XVIème siècle, restaurée et très fleurie.",382
Auberge du tournedos,Restaurant,Fêche-l'Église,90100,47.5044602,6.94694824,,488
Gite de Bourgogne,Logement,Sainte-Marie-sur-Ouche,21410,47.2966155,4.80985401,"A deux pas du golf, cette chambre d’hôte se compose de 3 chambres, chacune disposant de sa salle de bain.",21
La Maison Bleue,Logement,La Chaumusse,39150,46.589352,5.946566,"Situé à la Chaumusse, maison individuelle entièrement rénovée pouvant accueillir 10 personnes avec 4 chambres.",222
Roulotte de Bohême,Logement,Voisines,89260,48.258457,3.448315,,470
Aux Scaffoteux d'Oyé,Restaurant,Oyé,71800,46.323929,4.19134444,Bar-Restaurant situé en face de l'église romane avec son beau cloché et a seulement quelques pas du musée du village (berceau de la race Charolaise).,328
La Demoiselle,Logement,Aignay-le-Duc,21510,47.66412,4.734721,,12
Les Jardins Gourmands,Restaurant,Pesmes,70140,47.27534,5.56439,"Cuisine du terroir et spécialités régionales. Grande capacité d'accueil, repas de groupes, familles, associations. Cadre original et agréable.",291
Restaurant La Taverne,Restaurant,Paray-le-Monial,71600,46.4643371,4.1292214,,370
Gîte de Saint Clément,Logement,Saint-Clément-sur-Guye,71460,46.61564,4.58467,"Gite de 14 personnes, 5 chambres, 3 ont des lits simples et les deux autres chambres ont 2 lits superposés - chaque chambres a une salle d’eau",382
Henry Pascale,Activité,Saint-Cyr-les-Colons,89800,47.7404738,3.73991,"Au centre du vignoble de l’Auxerrois et du Chablisien, mon domaine viticole se constitue de quinze hectares de vignes travaillées dans le respect de l",434
Au Coteau des Thermes - Tourterelle,Logement,Saint-Honoré-les-Bains,58360,46.90438,3.844,,249
Accrobranche Montciel Aventure,Activité,Lons-le-Saunier,39000,46.6682357,5.5377755,Montciel Aventure propose 7 parcours accrobranche à 5 min du centre ville de Lons-le-Saunier. Parc familial idéal pour une activité conviviale.,208
La Parenthèse,Logement,Fougerolles-Saint-Valbert,70220,47.8886619,6.4024056,Maison sur 2 niveaux de 50 m2 disposant de 2 chambres.,276
Gîte La Gardonnette,Logement,Pesmes,70140,47.2779924,5.5649917,"Agréable hébergement 2 pers. avec terrain en bord d'Ognon, aménagé avec goût, et permettant de visiter ce "" Plus Beau Village de France.",291
Chambres Les Glycines de Taizé,Logement,Taizé,71250,46.511642,4.67842259,,329
Hôtel de Sassenay,Site culturel,Dijon,21000,47.3196423,5.0384331,,19
Croix du Dan,Paysage,Poligny,39800,46.8293936,5.70843614,Le belvédère de la Croix du Dan offre un point de vue imprenable s'étendant de la ville de Poligny jusqu'aux plaines de Bourgogne. Présence de bancs.,216
Millesime 78,Logement,Beaune,21200,47.022199,4.8341661,,7
Les Chèvres de la Cascade - Fromages fermiers,Activité,Les Bouchoux,39370,46.305899,5.819253,Production et vente fromages de chèvres. Présent au marché St Claude le jeudi et au marché des Bouchoux les dimanches matins d'été.,186
Domaine de la Pierre Ronde - Yourtes,Logement,Saint-Martin-de-la-Mer,21210,47.2465239,4.1899041,"4 yourtes situées au Domaine de la Pierre Ronde, en bordure du Lac de Chamboux au coeur du Parc du Morvan",57
Sentier Botanique de Rurey,Paysage,Rurey,25290,47.095478,6.009653,,109
Chambre d'hôtes Au bord du Canal - Jacoba Lagerburg,Logement,Vandenesse-en-Auxois,21320,47.2110524,4.63128715,,49
Fort Brûlé Paintball,Activité,Asnières-lès-Dijon,21380,47.3670171,5.04746,,5
Le chant des oiseaux,Logement,Viry,71120,46.4684414,4.3352168,"Au cœur du Charolais, venez vous détendre dans cette chambre d'hôtes paisible et confortable où les oiseaux chantent toute l'année. Accès à la piscine",322
Etang de la Galette,Activité,Bruailles,71500,46.5970828,5.25696895,"Étang de pêche à la journée L'étang est situé à 5 kilomètres de Louhans. Aire de pique-nique, parcours santé et parking.",353
Bar du Centre,Restaurant,Moulins-Engilbert,58290,46.9862352,3.81096145,Vous pouvez profiter de la petite terrasse extérieure au moment des beaux jours ou encore de l'ambiance conviviale de la salle remise à neuf.,249
Hôtel de Vougeot,Logement,Vougeot,21640,47.17582,4.9633878,,44
Sicagemac,Activité,Corbigny,58800,47.2522035,3.67685837,,234
Art d'Ici : la boutique des artisans d'art à Saint-Amand-en-Puisaye,Activité,Saint-Amand-en-Puisaye,58310,47.53156,3.07292,"Boutique d’artisanat d’art de Puisaye-Forterre, mettant en lumière des femmes et des hommes qui ont décidé de passer leur vie à créer et inventer.",255
Cœur d'Artichaut,Restaurant,Saint-Apollinaire,21850,47.33544,5.084299,,53
Le Garage,Restaurant,Marcilly-sur-Tille,21120,47.5192327,5.12983253,"Le Garage, bar cocktail PMU, au centre de Marcilly-sur-Tille",35
Maison Lambert,Logement,Saint-Agnan,71160,46.49892,3.90189,"Charmante maison ancienne  entièrement rénovée, très confortable, très bien équipée avec  vaste cour-jardin. Proche de nombreux sites à visiter.",366
Résidence Egalité - Montmartre,Logement,Dijon,21000,47.328144,5.031721,,19
Les Cépages,Logement,Voiteur,39210,46.750518,5.614494,Venez découvrir ce gite qui offre une vue panoramique sur Château-Chalon (classé parmi les plus beaux villages de France) et son vignoble. 2 nuits min,197
Le Brenetiau,Logement,Buffières,71250,46.4221575,4.52761667,,358
Boillot Albert,Activité,Volnay,21190,47.002047,4.7819903,,38
Gîte Conte des Fées,Logement,Pretin,39110,46.93749,5.83476941,Un repos et un bien être dans cette discrète vallée,223
Wengier Vincent,Activité,Préhy,89800,47.759911,3.758403,,424
A Cloche-Pierres,Activité,Trambly,71520,46.328255,4.533322,,358
Prieuré Saint-Hilaire de Commagny,Site culturel,Moulins-Engilbert,58290,46.973558,3.790571,,249
Mme DROUILLOT Jacqueline,Logement,Saint-Pierre-le-Moûtier,58240,46.7900011,3.1191532,,261
La Palmeraie,Logement,Maisod,39260,46.4683174,5.689477,,206
Joly Saint-Sauveur,Logement,Villard-Saint-Sauveur,39200,46.3702485,5.8713693,"Gîtes et Chambres d'hôte avec piscine extérieure chauffée , au calme, avec grand parc arboré, en bord de rivière, dans un hameau de quelques maisons.",221
Gites Notre-Dame - Aloïs T1,Logement,Paray-le-Monial,71600,46.4513555,4.1199355,JOLI STUDIO DANS RUE PIETONNIERE A DEUX PAS DU CENTRE HISTORIQUE,370
Le Corberon,Restaurant,Corberon,21250,47.006971,4.99665,"Cuisine maison, avec sa spécialité : tête de veau tous les vendredis midi.",27
Les Cabottes,Logement,Change,21340,46.92971,4.63396,"Location hébergements insolites (tiny houses en bois) avec spas privatifs, gîte et chambres d'hôtes près de Beaune en Bourgogne",43
Château de Flée,Site culturel,Le Val-Larrey,21140,47.43598,4.32658,,61
Le Clos d'Aval,Logement,Saint-Pierre,39150,46.565075,5.9170501,"Chalet indépendant de plein pied pour 2/3 personnes, situé en pleine nature. A 2 kms du départ des pistes de skis de fond et ces circuits de randonnée",222
La Toue Cabanée SPA,Logement,Digoin,71160,46.47512,3.97385,"La Toue cabanée SPA est une toue pour 2 personnes avec douche, wc, cuisine, chambre séparée, spa sur la terrasse. Accès en barque.",338
Location saisonnière - Les Narcisses,Logement,Dole,39100,47.0954462,5.50361109,"Appart 2 étoiles de 80m² calme, en rez-de-jardin, terrasse, 4 pers max, 5 nuitées mini, proxi commerces, véloroute, canal, centre historique",196
Grès de Ratilly,Activité,Treigny-Perreuse-Sainte-Colombe,89520,47.5541504,3.16756956,Ratilly propose la découverte de son atelier et la vente de sa production.,473
La Brasserie Doloise,Activité,Jouhe,39100,47.125741,5.4751376,"La Brasserie Doloise vous propose des bières FRANCAISES, évidemment MADE IN JURA, mais surtout MADE IN DOLE.",224
Fouilles archéologiques de Cestres,Site culturel,Saint-Martin-du-Mont,21440,47.434235,4.799508,,21
Hébergement collectif,Logement,Magny,89200,47.45016,3.95164,"Dans l'ancien moulin du Château de Marrault, venez vous détendre dans un écrin de verdure avec une vue d'un étang privé à couper le souffle !",419
Domaine Saint-Antoine des Echards,Activité,Change,21340,46.9257212,4.6339331,,43
Le Rucher des 3 Rivières,Activité,Diénay,21120,47.522166,5.065427,,26
Bichot Albert,Activité,Beaune,21200,47.0253848,4.8437913,,7
Gîte de Michaugues,Logement,Beaulieu,58420,47.25522,3.524905,,234
Luquet depuis 1878,Activité,Fuissé,71960,46.2800763,4.7434086,"Notre Domaine familial, depuis six générations, est situé à Fuissé au Sud de la Bourgogne. Nous exploitons 31Ha de vignes sur huit villages différents",373
Camping entre les deux ponts,Logement,Montbozon,70230,47.4630312,6.26684188,Camping de 33 emplacements.,157
Le Chalet des Prés Mouillets,Logement,Lepuix,90200,47.7643074,6.8240988,,504
Restaurant-Bar La Chicorée,Restaurant,Chagny,71150,46.91026,4.75268,Restaurant traditionnel situé au centre ville de Chagny.,317
Le DEUX,Logement,Mars-sur-Allier,58240,46.8564296,3.08571019,,261
La Ferme de Chaouen,Logement,Fulvy,89160,47.7411392,4.1715802,"Au coeur du pays de la Renaissance et des châteaux, Christelle vous accueille dans cette ancienne ferme typiquement bourguignonne.",40
Maison Familiale Rurale d'Education et d'Orientation,Logement,Étang-sur-Arroux,71190,46.8665879,4.1884499,"Établissement récent avec salle de réunion et cuisine équipée, proche du centre ville, à 800 mètres de la gare TER/SNCF.",343
"L'Hostellerie, Centre d'Art Singulier",Activité,Dijon,21000,47.320648,5.01778625,,19
Nordik Jura,Activité,Les Bouchoux,39370,46.3004254,5.8245425,Nordik Jura vous propose diverses activités en toutes saison dans l'univers passionnant des chiens de traîneaux.,186
L'Orée du Château,Logement,Vignoles,21200,47.029787,4.8899923,L'Orée du Château vous accueille dans une maison indépendante et de plain-pied située au cœur d'un village calme à 5 min du centre de Beaune.,28
Le Gîte du bord de Seine,Logement,Châtillon-sur-Seine,21400,47.8584654,4.5728133,,12
Gîte d'étape et de séjour - Le Lou Mabo,Logement,La Chaux,25650,47.0211505,6.43955372,,147
Location touristique,Logement,Belfort,90000,47.660553,6.84233329,Meublé de Tourisme 2 personnes,514
Histopad de la Saline royale,Activité,Arc-et-Senans,25610,47.03148,5.77808,,74
Chez caréo,Restaurant,Chèvremont,90340,47.6212108,6.9220797,,494
Tennis Club Marcigny,Activité,Marcigny,71110,46.2773301,4.0356909,Possibilité de réserver un court de tennis à l'heure. S'inscrire et remise de la clé à l'Office de Tourisme. Abonnement de juillet à août.,356
Château Chardonnay,Activité,Chardonnay,71700,46.509697,4.86257,,414
Dégustation Vins et Chocolats,Activité,Auxey-Duresses,21190,46.98629,4.74674,Accord Vin et chocolat,38
"Visite guidée ""Autun, toute une histoire""",Activité,Autun,71400,46.9490591,4.2982648,Cette visite panoramique remontera le temps et vous dévoilera toute la richesse du patrimoine gallo-romain et médiéval d'Autun.,309
Chiens de traineaux - Terre et Neige,Activité,Nanchez,39150,46.524786,5.854826,"Baptême en traîneau à chiens : installé à bord du traîneau vous partez découvrir les paysages de la combe de Prénovel, pour une durée minimum de 1h.",203
Stages avec Les Arts du Japon,Activité,Ornans,25290,47.1031241,6.1456625,"L'atelier Souzou propose des activités spécialisés: Origami, Kirigami, Furoshiki.",145
Boulangerie SARRE,Restaurant,Plancher-les-Mines,70290,47.7598352,6.7409034,,292
Église Saint-Étienne,Site culturel,Sirod,39300,46.7323898,5.98754882,"L'église Saint-Étienne de Sirod est une église datant du 12ème siècle, inscrite aux monuments historiques depuis 1946.",184
Communauté de Taizé,Site culturel,Taizé,71250,46.5158629,4.67941594,,329
Sellerie Isatis,Activité,Beaufort-Orbagna,39190,46.57598,5.43821,"Passionnée du monde équestre. Conception de pièces d'harnachement chevaux et chiens, d'articles de maroquinerie et  créations sur-mesure éco-conçues.",181
Epicéa,Restaurant,Besançon,25000,47.2390817,6.02062854,"Épicéa: Une cuisine d'auteur créative, nature, percutante et réconfortante",81
Eglise Saint-Isidore,Site culturel,Saint-Désert,71390,46.75415,4.7098,"L’ église actuelle, avec un clocher dominant la façade,  a été agrandie entre 1862 et 1887.  Elle était autrefois sur la ligne des remparts du bourg.",348
La Poste,Logement,Malbuisson,25160,46.7995894,6.30477905,Hôtel de caractère au style résolument campagnard au coeur du village de Malbuisson.,123
Domaine du Chalet Pouilly,Activité,Solutré-Pouilly,71960,46.296236,4.730044,,373
Zone de tranquillité de la vie sauvage - 4 lacs,Paysage,La Chaux-du-Dombief,39150,46.604226,5.9037499,"Secteur des 4 Lacs : une zone de tranquillité pour la faune et les milieux naturels, du 15 avril au 15 septembre.",222
Appartement - Cuney Annie,Logement,Lons-le-Saunier,39000,46.670507,5.55912157,"En centre ville, appartement dans un immeuble.
 2 ch. 2 balcons
A proximité des Thermes et du Parc des Bains.
Tarif spécial curistes 800€",204
L'Orgelle,Logement,Auxerre,89290,47.7559763,3.5879148,,426
Dégustation de vins terroirs bourguignons - DSVin,Activité,Beaune,21200,47.025304,4.839521,"En Bourgogne à votre domicile, sur votre lieu de vacances, partagez un moment convivial avec vos proches, vos collègues autour d'une Dégustation",7
Le Luxovium - Rosiers,Logement,Luxeuil-les-Bains,70300,47.8198739,6.37665294,Maison de caractère. Face aux Thermes. Vous trouverez calme et confort dans un très beau cadre.,285
Square du 19 Mars 1962 (XXème siècle),Site culturel,Paray-le-Monial,71600,46.4533594,4.11874884,Ce petit square est orné d’une mosaïque commandée en 1997 par la ville aux membres de l’Association Paul Charnoz.,370
Sanctuaire de Paray-le-Monial,Site culturel,Paray-le-Monial,71600,46.4498177,4.12248132,"Haut-lieu de pèlerinage, Paray-le-Monial reçoit toute l'année des centaines de milliers de pèlerins.",370
Domaine Clos Saint Jean : Le Linteau des Maranges,Logement,Cheilly-lès-Maranges,71150,46.89664,4.66905,"Gîte classé*** et Accueil Vélo, propre, tout confort moderne, accessible par train et situé dans le village viticole  de Cheilly les Maranges!",385
La Courtavaux,Logement,Premeaux-Prissey,21700,47.1116533,4.9319195,,44
Hôtel la Bonne Auberge,Restaurant,Pays-de-Clerval,25340,47.3908333,6.4952778,"L'hôtel et le restaurant La Bonne Auberge sont situés à Pays-de-Clerval, petite ville de la vallée du Doubs.",146
Les Fauvettes,Logement,Levier,25270,46.9584123,6.1113399,,125
Restaurant le Yeti,Restaurant,Les Rousses,39220,46.47674,6.06501,"Au Yeti, nous vous accueillons dans un décor chaleureux.  Vous dégusterez une cuisine régionale de montagne ""fait maison"".",218
L'Ardoise,Restaurant,Saint-Clément,89100,48.219959,3.281469,"En périphérie de Sens, nouveau restaurant à l'ambiance cocooning, à la fois conviviale et intime et au décor chaleureux. Une alliance réussie entre la",459
Les Jardins d'Oniris,Activité,Poisson,71600,46.3838376,4.13947369,"Production et transformation de plantes à parfums, aromatiques et médicinales.",370
Eglise,Site culturel,Saules,25580,47.1221869,6.197913,,145
European Waterways Ltd -Péniche Hôtel,Logement,Ravières,89390,47.7313378,4.2245706,,40
La Table du Végas,Restaurant,Saint-Honoré-les-Bains,58360,46.9063646,3.83261832,"Restaurant panoramique situé à proximité du Parc thermal de Saint-Honoré-Les Bains.
Ouvert 5 jours sur 7, soirées à thèmes. Cuisine traditionnelle.",249
2CV Bourgogne Tours,Activité,Beaune,21200,47.014706,4.81785,"Située à Beaune, au cœur de la Bourgogne, 2CV Bourgogne Tours est une société de tourisme qui propose la mise à disposition de 2CVs.",7
Caprices des chèvres,Activité,Couloutre,58220,47.408655,3.227813,La chèvrerie Caprices des Chèvres vous propose une production de fromages fermiers en agriculture biologique.,238
Le Goût des Autres,Restaurant,Auxerre,89000,47.7952816,3.57027654,"Ce petit restaurant situé en coeur de ville vous propose viandes, salades et pâtes fraiches dans une ambiance chaleureuse et décontractée.",418
Château de Varennes,Logement,Varennes-lès-Mâcon,71000,46.2705439,4.8068444,"Exceptionnel château du XI siècle qui propose des chambres d’hôtes au cœur même du château ainsi qu’un restaurant ""Au château"".",331
Historial de l'Amitié Franco-Américaine de Beaune,Activité,Beaune,21200,47.029468,4.8615448,Découvrez le musée historique du camp américain de Beaune durant la 1ère Guerre Mondiale. Unique en Côte d'Or !,7
Restaurant La Belle Epoque,Restaurant,La Clayette,71800,46.2923614,4.3063896,"Venez découvrir notre carte spécialisée viande charolaise maturée par nos sois, dans une ambiance brocante rétro et terrasse face au château",328
Aire de service et de stationnement pour les campings-cars,Logement,Sainte-Croix-en-Bresse,71470,46.5729188,5.24667386,,353
Loiseau des Vignes,Restaurant,Beaune,21200,47.0226094,4.8346261,La Cuisine permet de déguster les spécialités de Bourgogne et les créations du chef Mourad Haddouche.,7
Les Carrières,Logement,Lacrost,71700,46.553574,4.927811,,409
Visite guidée du village de Pesmes,Activité,Pesmes,70140,47.27982,5.56324,"Dominant l’Ognon du haut de son promontoire, Pesmes est l’un des Plus Beaux Villages de France.",291
Yang Appart,Logement,Dijon,21000,47.3274067,5.0384371,,19
Restaurant Le Bouchon Bourguignon,Restaurant,Tournus,71700,46.56579,4.90807,"La cuisine du bouchon de Yohann Chapuis a la bienveillance des plats de famille, la convivialité des tables d’amis, dans un cadre chaleureux et puise",409
Chalet Gabriel,Logement,Luxeuil-les-Bains,70300,47.8244544,6.3723825,"Chalet plain pied, à 5 min des Thermes à Luxeuil-les-Bains. Séjour, coin cuisine, une chambre, salon, salle d'eau douche, wc, terrasse avec pelouse.",285
Fosse de Coulmier-le-Sec,Site culturel,Coulmier-le-Sec,21400,47.75021,4.49362,"Au 18e siècle, le village de Coulmier-le-Sec, en Côte-d’Or, a fait construire un
bassin monumental et unique en France pour récupérer les eaux de plui",12
Château de Tracy,Activité,Tracy-sur-Loire,58150,47.3207324,2.89286503,Vins blancs de l'AOC Pouilly-Fumé. HVE: Haute Valeur Environnementale - Propriétaire Récoltant à Tracy sur Loire - White Wine of the Pouilly-Fumé's,253
La Petite Maison,Logement,Diges,89240,47.7242776,3.36130249,Gîte indépendant situé dans un ensemble de bâtiments disposant d'un jardin clos avec barbecue. Les petits animaux sont admis.,435
Le site des Forges Royales,Site culturel,Guérigny,58130,47.088139,3.191654,Pierre Babaud de La Chaussade (1706-1792) a constitué à partir de 1743 une entreprise métallurgique de première importance.,242
"Aurélie Muskovac, Massage Beaune",Activité,Beaune,21200,47.01903,4.83666,"Massage Beaune  : Thaï, Tui-Na, réflexologie plantaire, femmes enceintes relaxation et détente centrés sur le bien-être. Massage de 45' à 2h00.",7
Gîte n°G1857,Logement,Nanchez,39150,46.5226135,5.8494972,,203
Randonnée à Autrey-Lès-Gray,Activité,Autrey-lès-Gray,70100,47.48628,5.49162,,268
Hôtel de l'Ecluse n° 79,Restaurant,Chassignelles,89160,47.7596623,4.173974,"Terrasse au bord du canal de Bourgogne ombragée par de beaux marronniers. A l'étage, une autre terrasse entièrement vitrée avec vue sur le canal.",40
La Côte Monsieur - Gîte La Réserve de l'Ecureuil,Logement,Étivey,89310,47.6910337,4.1175573,"La Côte Monsieur, située en Bourgogne, à proximité du village médiéval de Noyers-sur-Serein et des vignobles de Chablis et Tonnerre.",471
Passeport Détente,Activité,Coulanges-sur-Yonne,89480,47.52639,3.53961,,233
Restaurant du Port,Restaurant,Villers-le-Lac,25130,47.068149,6.69075539,"Au bord du lac de Chaillexon, le restaurant du Port vous accueille pour déguster des fritures de poissons et des spécialités régionales!",176
Hôtel Villa du Parc,Logement,Nevers,58000,46.9916699,3.1549215,"Situé en face le parc Salengro, et tout à côté du sanctuaire, l'accueil est équivalent à celui d' une maison d'hôtes. Chaque chambre a son style.",251
Gîte Cascades des Tufs,Logement,La Châtelaine,39600,46.875234,5.8164619,"Profitez d'un superbe domaine au milieu d'un parc de 3 ha, dans un village qui surplombe la magnifique Reculée des Planches. Immanquable !",178
La Brasserie du Pont de Fer,Restaurant,Sens,89100,48.2079348,3.2763255,"A proximité du centre-ville de Sens, accueil amical et chaleureux, dans une ambiance industrielle et moderne.",467
Terra Nova Mineraux,Activité,Cuisia,39190,46.54284,5.40081,"Atelier avec salle d'exposition-vente ouverte au public sur rendez-vous. 
 Large gamme de pierres et créations de bijoux. Ecoute et conseils.",192
Le Commerce,Restaurant,Brinon-sur-Beuvron,58420,47.28062,3.49122,Bar situé sur la place centrale du village juste à côté de l'épicerie.,266
Les ouvrages fortifiés : OUVRAGES DE LA CRETE DE POUILLEY-LES-VIGNES (1889-1891),Activité,Pouilley-les-Vignes,25115,47.2538442,5.9376083,"L'ensemble fortifié de Pouilley assure la protection Nord-ouest du camp retranché de Besançon, il est réalisé de 1889 à 1891.",153
Les Vignots,Activité,Beaune,21200,47.0234027,4.8401318,,7
Gîte le Creux de Vennes,Logement,Vennes,25390,47.15893,6.5447,,144
Regnaudot Bernard et Florian,Activité,Dezize-lès-Maranges,71150,46.9095023,4.6523542,,43
Chêne Vert,Logement,Semur-en-Brionnais,71110,46.264042,4.095048,,356
Champ de César ou d'Agneux,Site culturel,Rully,71150,46.875041,4.740823,,377
Le Vieux Château,Logement,Thenissey,21150,47.4922462,4.6239813,,72
Grossot Jean-Pierre et Corinne,Activité,Fleys,89800,47.8140073,3.8572251,,424
L'Alchimiste,Activité,Arleuf,58430,47.02543,3.99055,,231
Les coquilles de Mr Gaster,Activité,Thieffrans,70230,47.5010855,6.317876,"Nos escargots sont élevés et transformés par nos soins, avec des produits essentiellement locaux (beurre, comté, légumes, vins)...",157
Chalet n° 2 Centaurée,Logement,Uxelles,39130,46.60384,5.78733,,189
Le Lumineux de Battant,Logement,Besançon,25000,47.24061,6.01891,"Appartement entièrement équipé, calme et lumineux avec vue. Situé en hypercentre historique de Besançon (Quartier Madeleine - Battant)",81
Gite Iza,Logement,Lormes,58140,47.29146,3.81624,"Cette maison de ville est au centre de Lormes, petite ville du Morvan.",244
La Maison de Balanin,Logement,Villers-Farlay,39600,46.998684,5.7524058,"Accueil de groupe et organisation de séjours à caractère éducatif, festif ou professionnel.",210
Fruirouge&Compagnie l'épicerie fermière,Activité,Nuits-Saint-Georges,21700,47.1355829,4.94786293,"Fruirouge et compagnie, l'épicerie fermière est une boutique de produits fermiers, produits régionaux, bio au centre-ville de Nuits-Saint-Georges.",44
Camping Onlycamp Le Petit Port,Logement,Châtel-Censoir,89660,47.5356298,3.6327691,Camping deux étoiles entre Yonne et Canal du Nivernais offrant des emplacements tentes et camping.,233
Chez Félix,Restaurant,Besançon,25000,47.2464,6.02344629,"""Cuisine française. Laissez-vous tenter par nos plats et nos boissons.""",81
Le Petit Robinson,Activité,Bourbon-Lancy,71140,46.64061,3.75253,"Niché en bord de Sommes, Le Petit Robinson véritable guinguette d'époque où petits et grands passeront un agréable moment. Possibilité de restauration",313
"Les Cabanes du Valleron - La Cabane ""du sapin""",Logement,Curtil-sous-Buffières,71520,46.3991444,4.5381646,"Cabanes pour 4 personnes tout confort, massages de bien-être et repos en pleine nature.",358
Grotte de Sous Buen,Paysage,Baume-les-Dames,25110,47.34527,6.37129,Jolie petite grotte dans le quartier de Cour à Baume les Dames. Accessible par une échelle.,79
La Bergerie,Logement,Montgesoye,25111,47.089393,6.206545,"Gîte dans une ferme comtoise de 1846, entouré de champs et de verdure au-dessus de la vallée de la Loue.",145
Maison Laroze,Logement,Gevrey-Chambertin,21220,47.2251,4.97052,"La Maison Laroze, située en plein cœur de Gevrey-Chambertin sur la route des Grands Crus offre 6 suites spacieuses à la décoration raffinée.",24
Aux Quatre Vents,Restaurant,Saulieu,21210,47.2752484,4.2252936,,57
Visite guidée : entre ponts,Activité,Besançon,25000,47.24021,6.02725,"La visite, qui vous conduira du pont de la République au pont Canot, évoquera les différentes manières de vivre non loin de la rivière",81
La sudagna,Logement,La Chailleuse,39570,46.602815,5.5126413,,226
Château de Chamirey,Activité,Mercurey,71640,46.825608,4.724649,"Le Domaine du Château de Chamirey, planté dans les meilleurs terroirs de Mercurey, comprend 37 hectares (27 ha de rouges et 10 ha de blancs)",360
La Cantinière,Logement,Fougerolles-Saint-Valbert,70220,47.9072033,6.423171,,276
Brasserie Granvelle,Restaurant,Besançon,25000,47.2353193,6.0266374,"Dans un parc arboré au cœur du centre ville, la Brasserie Granvelle vous reçoit dans une ambiance détendue et amicale...",81
La Maison de Simone,Logement,Simard,71330,46.741196,5.182548,,405
Boutique Maille,Activité,Dijon,21000,47.3224068,5.0367183,,19
Gîte Petot,Logement,Pont-de-Poitte,39130,46.5836652,5.7001023,"Maison indépendante, de plain-pied, avec véranda, sur terrain entièrement clos, en bordure de rivière. Tous commerces sur place. Quartier calme.",189
Environnement Pêche Nature,Activité,Foncine-le-Bas,39520,46.6397149,6.0354867,"En famille, entre amis,  en solo
Je suis votre connexion à la Nature 
Pour faire de cet instant,
Une journée qui devra rester dans vos rêves …",198
Chez Lyly et Bapt,Restaurant,Dole,39100,47.0916463,5.4915076,Bar à pâtes et salades,196
La Brébaume,Logement,Frontenay,39210,46.78623,5.61921,Ce gîte 12 personnes vous accueille dans le cadre enchanteresse du Château de Frontenay.,197
Chambres d'hôtes Premnord,Logement,Premeaux-Prissey,21700,47.11339,4.93331,,44
Ecole départementale de musique,Activité,Scey-sur-Saône-et-Saint-Albin,70360,47.6654122,5.9670373,Ecole de musique : cours de solfège et instruments.,303
Spa Repaire,Logement,Joncherey,90100,47.54135,7.01891,,503
Longue vue - La maison de Jean,Logement,Arbois,39600,46.9014,5.78114,maison d'hôte avec vue panoramique sur l'entrée de la reculée des Planches; petit déjeuner inclus; parking sur place - possibilité de garage vélo/moto,178
Des Exterpois,Logement,Blois-sur-Seille,39210,46.749115,5.672731,,197
Le Bistrot de la Fontaine,Restaurant,Clairvaux-les-Lacs,39130,46.5755008,5.75168609,Café brasserie situé au cœur du village de Clairvaux-les-Lacs à 5min à pied du lac. Ambiance pub irlandais. Terrasse estivale. Ouvert toute la journée,189
Céramique Leba Condon,Activité,Pontigny,89230,47.9092538,3.7103548,"Je crée des pièces utilitaires et décoratives en porcelaine et grès. Vases, cruches, animaux de collection, gobelets, suspensions, tableaux, bols...",444
Les Flots Bleus,Logement,Saint-Jean-de-Losne,21170,47.103976,5.260709,"Situé sur le port ""La Gare d'Eau"" l'aire de service vous permet de réaliser votre ravitaillement en eau, électricité et vidanger vos eaux usées.",56
Saule en Fa,Activité,Pontarlier,25300,46.90578,6.35404,"Atelier -boutique, vannerie classique d'osier, réalisations originales tressées avec d'autres végétaux glanés localement : paniers, cabas, mangeoires.",152
Ateliers de la Neuvième Art et Thérapie Mireille Kazmine,Activité,Montceau-les-Mines,71300,46.6775153,4.3664159,"Bien dans sa tête, bien dans son corps, bien dans sa vie. 
Créer un univers à l'intérieur du quel vous vous sentez bien !",362
